id,formattedAddress,addressLine1,addressLine2,city,state,zipCode,latitude,longitude,propertyType,bedrooms,bathrooms,squareFootage,lotSize,yearBuilt,features,taxAssessments,propertyTaxes,zoning,owner,ownerOccupied
"1505-Natalie-Ln,-Ann-Arbor,-MI-48105","1505 Natalie Ln, Ann Arbor, MI 48105",1505 Natalie Ln,,Ann Arbor,MI,48105,42.29336,-83.68327,Apartment,1.0,1.0,800.0,,,,,,,,
"1100-Rabbit-Run-Cir,-Ann-Arbor,-MI-48103","1100 Rabbit Run Cir, Ann Arbor, MI 48103",1100 Rabbit Run Cir,,Ann Arbor,MI,48103,42.269316,-83.788845,Apartment,1.0,1.0,770.0,,1998.0,{'unitCount': 368},"{'2018': {'year': 2018, 'value': 6999400, 'land': None, 'improvements': None}, '2019': {'year': 2019, 'value': 9431800, 'land': None, 'improvements': None}, '2020': {'year': 2020, 'value': 9652500, 'land': None, 'improvements': None}, '2021': {'year': 2021, 'value': 8464500, 'land': None, 'improvements': None}, '2022': {'year': 2022, 'value': 8464500, 'land': None, 'improvements': None}, '2023': {'year': 2023, 'value': 8464500, 'land': None, 'improvements': None}, '2024': {'year': 2024, 'value': 11456500, 'land': None, 'improvements': None}}","{'2018': {'year': 2018, 'total': 167904}, '2019': {'year': 2019, 'total': 473162}, '2020': {'year': 2020, 'total': 506913}, '2021': {'year': 2021, 'total': 441712}, '2022': {'year': 2022, 'total': 436024}, '2023': {'year': 2023, 'total': 444247}, '2024': {'year': 2024, 'total': 417253}}",,,
"618-S-Main-St,-Ann-Arbor,-MI-48104","618 S Main St, Ann Arbor, MI 48104",618 S Main St,,Ann Arbor,MI,48104,42.2732,-83.74962,Apartment,0.0,1.0,447.0,,2015.0,,,,,,
"3050-Birch-Hollow-Dr,-Ann-Arbor,-MI-48108","3050 Birch Hollow Dr, Ann Arbor, MI 48108",3050 Birch Hollow Dr,,Ann Arbor,MI,48108,42.238928,-83.719254,Apartment,,1.0,,,1975.0,,,,,,
"2225-Traverwood-Dr,-Ann-Arbor,-MI-48105","2225 Traverwood Dr, Ann Arbor, MI 48105",2225 Traverwood Dr,,Ann Arbor,MI,48105,42.304632,-83.71612,Apartment,1.0,1.0,706.0,,2016.0,,,,,,
"2555-Oak-Valley-Dr,-Ann-Arbor,-MI-48103","2555 Oak Valley Dr, Ann Arbor, MI 48103",2555 Oak Valley Dr,,Ann Arbor,MI,48103,42.2497,-83.770521,Apartment,2.0,2.0,1405.0,,2016.0,,,,,,
"2550-Packard-St,-Ann-Arbor,-MI-48104","2550 Packard St, Ann Arbor, MI 48104",2550 Packard St,,Ann Arbor,MI,48104,42.2499,-83.72335,Apartment,,,,,2018.0,,,,,,
"2167-Medford-Rd,-Ann-Arbor,-MI-48104","2167 Medford Rd, Ann Arbor, MI 48104",2167 Medford Rd,,Ann Arbor,MI,48104,42.25747,-83.71173,Apartment,2.0,1.0,650.0,,1964.0,,,,,,
"2200-Fuller-Ct,-Ann-Arbor,-MI-48105","2200 Fuller Ct, Ann Arbor, MI 48105",2200 Fuller Ct,,Ann Arbor,MI,48105,42.285303,-83.717192,Apartment,,1.0,,,1960.0,,,,,,
"275-Harbor-Way,-Ann-Arbor,-MI-48103","275 Harbor Way, Ann Arbor, MI 48103",275 Harbor Way,,Ann Arbor,MI,48103,42.24851,-83.7478,Apartment,1.0,1.0,734.0,,1990.0,,,,,,
"3615-Green-Brier-Blvd,-Ann-Arbor,-MI-48105","3615 Green Brier Blvd, Ann Arbor, MI 48105",3615 Green Brier Blvd,,Ann Arbor,MI,48105,42.298402,-83.690509,Apartment,,1.0,,,1965.0,,,,,,
"200-E-Liberty-Lbby-St,-Unit-202,-Ann-Arbor,-MI-48104","200 E Liberty Lbby St, Unit 202, Ann Arbor, MI 48104",200 E Liberty Lbby St,Unit 202,Ann Arbor,MI,48104,42.278975,-83.746772,Apartment,2.0,1.0,1000.0,,,,,,,,
"536-S-Forest-Ave,-Ann-Arbor,-MI-48104","536 S Forest Ave, Ann Arbor, MI 48104",536 S Forest Ave,,Ann Arbor,MI,48104,42.275744,-83.73339,Apartment,3.0,1.0,,,1965.0,,,,,,
"1521-Pine-Valley-Blvd,-Ann-Arbor,-MI-48104","1521 Pine Valley Blvd, Ann Arbor, MI 48104",1521 Pine Valley Blvd,,Ann Arbor,MI,48104,42.25144,-83.72584,Apartment,,1.0,,,1964.0,,,,,,
"545-Landings-Blvd,-Ann-Arbor,-MI-48103","545 Landings Blvd, Ann Arbor, MI 48103",545 Landings Blvd,,Ann Arbor,MI,48103,42.28952,-83.79565,Apartment,1.0,1.0,886.0,,1999.0,,,,,,
"2845-Sagebrush-Cir,-Ann-Arbor,-MI-48103","2845 Sagebrush Cir, Ann Arbor, MI 48103",2845 Sagebrush Cir,,Ann Arbor,MI,48103,42.26874,-83.78629,Apartment,1.0,1.0,770.0,,1998.0,,,,,,
"101-N-Ingalls-St,-Ann-Arbor,-MI-48104","101 N Ingalls St, Ann Arbor, MI 48104",101 N Ingalls St,,Ann Arbor,MI,48104,42.281532,-83.73859,Apartment,2.0,1.0,,,,,,,,,
"1321-Wilmot-St,-Ann-Arbor,-MI-48104","1321 Wilmot St, Ann Arbor, MI 48104",1321 Wilmot St,,Ann Arbor,MI,48104,42.276562,-83.732224,Apartment,2.0,1.0,,,1967.0,,,,,,
"1529-1537-Pine-Valley-Blvd,-Ann-Arbor,-MI-48104","1529-1537 Pine Valley Blvd, Ann Arbor, MI 48104",1529-1537 Pine Valley Blvd,,Ann Arbor,MI,48104,42.25171,-83.72493,Apartment,,1.0,,,1964.0,,,,,,
"5054-Park-Rd,-Ann-Arbor,-MI-48103","5054 Park Rd, Ann Arbor, MI 48103",5054 Park Rd,,Ann Arbor,MI,48103,42.284067,-83.829911,Single Family,2.0,2.0,1774.0,39204.0,,"{'architectureType': 'Bi-Level', 'exteriorType': 'Brick', 'floorCount': 1, 'garage': True, 'garageType': 'Garage', 'heating': True, 'heatingType': 'Forced Air', 'unitCount': 1}","{'2023': {'year': 2023, 'value': 165100}}",,,"{'names': ['STEVEN L MERRITT', 'MERRITT,STEVEN L TRUST'], 'mailingAddress': {'id': '859-Wickfield-Ct,-Ann-Arbor,-MI-48105', 'addressLine1': '859 Wickfield Ct', 'addressLine2': None, 'city': 'Ann Arbor', 'state': 'MI', 'stateFips': '26', 'zipCode': '48105'}}",False
"200-E-Liberty-St,-Ann-Arbor,-MI-48104","200 E Liberty St, Ann Arbor, MI 48104",200 E Liberty St,,Ann Arbor,MI,48104,42.278975,-83.746772,Apartment,2.0,2.0,1000.0,,,,,,,,
"1032-Vaughn-St,-Ann-Arbor,-MI-48104","1032 Vaughn St, Ann Arbor, MI 48104",1032 Vaughn St,,Ann Arbor,MI,48104,42.268822,-83.735928,Apartment,3.0,1.0,900.0,,,,,,,,
"2047-Charlton-St,-Ann-Arbor,-MI-48103","2047 Charlton St, Ann Arbor, MI 48103",2047 Charlton St,,Ann Arbor,MI,48103,42.279059,-83.774432,Apartment,,1.0,,,1965.0,,,,,,
"425-S-5th-Ave,-Ann-Arbor,-MI-48104","425 S 5th Ave, Ann Arbor, MI 48104",425 S 5th Ave,,Ann Arbor,MI,48104,42.2774,-83.74625,Apartment,6.0,,,,2012.0,,,,,,
"2001-S-Huron-Pkwy,-Ann-Arbor,-MI-48104","2001 S Huron Pkwy, Ann Arbor, MI 48104",2001 S Huron Pkwy,,Ann Arbor,MI,48104,42.25821,-83.69512,Apartment,2.0,1.0,,,1967.0,,,,,,
"537-S-4th-Ave,-Apt-2,-Ann-Arbor,-MI-48104","537 S 4th Ave, Apt 2, Ann Arbor, MI 48104",537 S 4th Ave,Apt 2,Ann Arbor,MI,48104,42.275264,-83.747612,Apartment,1.0,1.0,800.0,,1920.0,,,,,,
"537-S-4th-Ave,-Apt-1,-Ann-Arbor,-MI-48104","537 S 4th Ave, Apt 1, Ann Arbor, MI 48104",537 S 4th Ave,Apt 1,Ann Arbor,MI,48104,42.275264,-83.747612,Apartment,1.0,1.0,,,1920.0,,,,,,
"301-Nob-Hill-Ct,-Ann-Arbor,-MI-48103","301 Nob Hill Ct, Ann Arbor, MI 48103",301 Nob Hill Ct,,Ann Arbor,MI,48103,42.27068,-83.75204,Apartment,2.0,1.0,,,1952.0,,,,,,
"736-S-Forest-Ave,-Ann-Arbor,-MI-48104","736 S Forest Ave, Ann Arbor, MI 48104",736 S Forest Ave,,Ann Arbor,MI,48104,42.272526,-83.733467,Apartment,2.0,1.0,,,,,,,,,
"425-E-Washington-St,-Ann-Arbor,-MI-48104","425 E Washington St, Ann Arbor, MI 48104",425 E Washington St,,Ann Arbor,MI,48104,42.28074,-83.74298,Apartment,4.0,2.0,,,2013.0,,,,,,
"3400-Nixon-Rd,-Ann-Arbor,-MI-48105","3400 Nixon Rd, Ann Arbor, MI 48105",3400 Nixon Rd,,Ann Arbor,MI,48105,42.32156,-83.70693,Apartment,,,,,2019.0,,,,,,
"2469-2511-Packard-St,-Ann-Arbor,-MI-48104","2469-2511 Packard St, Ann Arbor, MI 48104",2469-2511 Packard St,,Ann Arbor,MI,48104,42.24931,-83.7203,Apartment,,2.0,,,1988.0,,,,,,
"1245-Astor-Dr,-Ann-Arbor,-MI-48104","1245 Astor Dr, Ann Arbor, MI 48104",1245 Astor Dr,,Ann Arbor,MI,48104,42.25909,-83.7318,Apartment,,,,,1968.0,,,,,,
"524-518-E-William-St,-Ann-Arbor,-MI-48104","524-518 E William St, Ann Arbor, MI 48104",524-518 E William St,,Ann Arbor,MI,48104,42.27769,-83.74225,Apartment,0.0,1.0,,,1962.0,,,,,,
"1210-W-Stadium-Blvd,-Ann-Arbor,-MI-48103","1210 W Stadium Blvd, Ann Arbor, MI 48103",1210 W Stadium Blvd,,Ann Arbor,MI,48103,42.26392,-83.761879,Apartment,,1.0,,,1958.0,,,,,,
"3510-Pheasant-Run-Cir,-Ann-Arbor,-MI-48108","3510 Pheasant Run Cir, Ann Arbor, MI 48108",3510 Pheasant Run Cir,,Ann Arbor,MI,48108,42.23346,-83.72039,Apartment,2.0,1.0,900.0,,1971.0,,,,,,
"408-Montgomery-Ave,-Ann-Arbor,-MI-48103","408 Montgomery Ave, Ann Arbor, MI 48103",408 Montgomery Ave,,Ann Arbor,MI,48103,42.279068,-83.764412,Apartment,2.0,1.0,,,,,,,,,
"3310-Packard-St,-Ann-Arbor,-MI-48108","3310 Packard St, Ann Arbor, MI 48108",3310 Packard St,,Ann Arbor,MI,48108,42.244451,-83.694295,Apartment,1.0,1.0,,,1967.0,,,,,,
"1131-Church-St,-Apt-B4,-Ann-Arbor,-MI-48104","1131 Church St, Apt B4, Ann Arbor, MI 48104",1131 Church St,Apt B4,Ann Arbor,MI,48104,42.268229,-83.734057,Apartment,0.0,1.0,,,,,,,,,
"650-Waymarket-Dr,-Ann-Arbor,-MI-48103","650 Waymarket Dr, Ann Arbor, MI 48103",650 Waymarket Dr,,Ann Arbor,MI,48103,42.24194,-83.75671,Apartment,1.0,1.0,744.0,,1991.0,,,,,,
"420-Kellogg-St,-Ann-Arbor,-MI-48105","420 Kellogg St, Ann Arbor, MI 48105",420 Kellogg St,,Ann Arbor,MI,48105,42.293349,-83.74179,Apartment,1.0,1.0,650.0,,1968.0,,,,,,
"205-S-State-St,-Ann-Arbor,-MI-48104","205 S State St, Ann Arbor, MI 48104",205 S State St,,Ann Arbor,MI,48104,42.28008,-83.740511,Apartment,2.0,1.0,,,2005.0,,,,,,
"275-398-Rolling-Meadows-Dr,-Ann-Arbor,-MI-48103","275-398 Rolling Meadows Dr, Ann Arbor, MI 48103",275-398 Rolling Meadows Dr,,Ann Arbor,MI,48103,42.25214,-83.75366,Apartment,2.0,1.0,,,1988.0,,,,,,
"3008-Randolph-Court-Dr,-Ann-Arbor,-MI-48108","3008 Randolph Court Dr, Ann Arbor, MI 48108",3008 Randolph Court Dr,,Ann Arbor,MI,48108,42.24476,-83.6717,Apartment,1.0,1.0,576.0,,1985.0,,,,,,
"2230-2240-Fuller-Ct,-Ann-Arbor,-MI-48105","2230-2240 Fuller Ct, Ann Arbor, MI 48105",2230-2240 Fuller Ct,,Ann Arbor,MI,48105,42.284836,-83.716095,Apartment,1.0,1.0,,,1966.0,,,,,,
"3000-Signature-Blvd,-Ann-Arbor,-MI-48103","3000 Signature Blvd, Ann Arbor, MI 48103",3000 Signature Blvd,,Ann Arbor,MI,48103,42.2407,-83.75341,Apartment,1.0,1.5,940.0,,1993.0,,,,,,
"401-W-Oakbrook-Dr,-Ann-Arbor,-MI-48103","401 W Oakbrook Dr, Ann Arbor, MI 48103",401 W Oakbrook Dr,,Ann Arbor,MI,48103,42.245174,-83.752962,Apartment,,1.0,,,1987.0,,,,,,
"600-Hidden-Valley-Club-Dr,-Ann-Arbor,-MI-48104","600 Hidden Valley Club Dr, Ann Arbor, MI 48104",600 Hidden Valley Club Dr,,Ann Arbor,MI,48104,42.2468,-83.74139,Apartment,1.0,1.0,690.0,,1973.0,,,,,,
"101-Lake-Village-Dr,-Ann-Arbor,-MI-48103","101 Lake Village Dr, Ann Arbor, MI 48103",101 Lake Village Dr,,Ann Arbor,MI,48103,42.251665,-83.746933,Apartment,1.0,1.0,900.0,,1997.0,,,,,,
"1099-Maiden-Ln,-Ann-Arbor,-MI-48105","1099 Maiden Ln, Ann Arbor, MI 48105",1099 Maiden Ln,,Ann Arbor,MI,48105,42.287945,-83.733425,Apartment,,1.0,,,1970.0,,,,,,
"2572-Carpenter-Rd,-Ann-Arbor,-MI-48108","2572 Carpenter Rd, Ann Arbor, MI 48108",2572 Carpenter Rd,,Ann Arbor,MI,48108,42.24939,-83.68204,Apartment,1.0,1.0,731.0,,1969.0,,,,,,
"1036-S-Main-St,-Ann-Arbor,-MI-48104","1036 S Main St, Ann Arbor, MI 48104",1036 S Main St,,Ann Arbor,MI,48104,42.267979,-83.750671,Apartment,1.0,1.0,,,1965.0,,,,,,
"1317-Wilmot,-Ann-Arbor,-MI-48104","1317 Wilmot, Ann Arbor, MI 48104",1317 Wilmot,,Ann Arbor,MI,48104,42.276826,-83.732383,Apartment,2.0,1.0,,,,,,,,,
"1025-Packard-St,-Ann-Arbor,-MI-48104","1025 Packard St, Ann Arbor, MI 48104",1025 Packard St,,Ann Arbor,MI,48104,42.267161,-83.736152,Apartment,3.0,1.0,,,,,,,,,
"121-E-Hoover-And-921-S-Main-St,-Ann-Arbor,-MI-48104","121 E Hoover And 921 S Main St, Ann Arbor, MI 48104",121 E Hoover And 921 S Main St,,Ann Arbor,MI,48104,42.27011,-83.75015,Apartment,1.0,1.0,,,,,,,,,
"208-W-Ann-St,---1,-Ann-Arbor,-MI-48104","208 W Ann St, # 1, Ann Arbor, MI 48104",208 W Ann St,# 1,Ann Arbor,MI,48104,42.282581,-83.750175,Condo,4.0,2.0,,,,,,,,,
"1980-Pauline-Blvd,-Ann-Arbor,-MI-48103","1980 Pauline Blvd, Ann Arbor, MI 48103",1980 Pauline Blvd,,Ann Arbor,MI,48103,42.2687,-83.77393,Apartment,2.0,1.0,812.0,,,{'unitCount': 88},,,,,
"543-Church-St,-Ann-Arbor,-MI-48104","543 Church St, Ann Arbor, MI 48104",543 Church St,,Ann Arbor,MI,48104,42.275372,-83.734307,Apartment,0.0,1.0,,,,,,,,,
"721-Catherine-St,-Ann-Arbor,-MI-48104","721 Catherine St, Ann Arbor, MI 48104",721 Catherine St,,Ann Arbor,MI,48104,42.28323,-83.740025,Apartment,1.0,1.0,,,,,,,,,
"832-Packard-Rd,-Ann-Arbor,-MI-48104","832 Packard Rd, Ann Arbor, MI 48104",832 Packard Rd,,Ann Arbor,MI,48104,42.24641,-83.71802,Apartment,1.0,1.0,,,,,,,,,
"502-Elm-St,-Ann-Arbor,-MI-48104","502 Elm St, Ann Arbor, MI 48104",502 Elm St,,Ann Arbor,MI,48104,42.276913,-83.730415,Single Family,5.0,2.0,2300.0,3659.0,1920.0,"{'cooling': True, 'coolingType': 'Commercial', 'fireplace': True, 'floorCount': 2, 'heating': True, 'heatingType': 'Forced Air', 'roomCount': 10, 'unitCount': 1}","{'2023': {'year': 2023, 'value': 260100}}","{'2022': {'year': 2022, 'total': 5906}}",R4C,"{'names': ['EWING INVESTMENT CORP'], 'mailingAddress': {'id': 'PO-BOX-7728,-Ann-Arbor,-MI-48107', 'formattedAddress': 'PO BOX 7728, Ann Arbor, MI 48107', 'addressLine1': 'PO BOX 7728', 'addressLine2': None, 'city': 'Ann Arbor', 'state': 'MI', 'stateFips': '26', 'zipCode': '48107'}}",False
"1015-W-Huron-St,-Ann-Arbor,-MI-48103","1015 W Huron St, Ann Arbor, MI 48103",1015 W Huron St,,Ann Arbor,MI,48103,42.281577,-83.760547,Apartment,2.0,1.0,769.0,,,,,,,,
"410-S-Division-St,-Apt-2,-Ann-Arbor,-MI-48104","410 S Division St, Apt 2, Ann Arbor, MI 48104",410 S Division St,Apt 2,Ann Arbor,MI,48104,42.277409,-83.744438,Apartment,6.0,3.0,,,,,,,,,
"3008-Cloverly-Ln,-Ann-Arbor,-MI-48108","3008 Cloverly Ln, Ann Arbor, MI 48108",3008 Cloverly Ln,,Ann Arbor,MI,48108,42.230972,-83.717812,Single Family,2.0,2.0,1679.0,348480.0,2004.0,"{'cooling': True, 'floorCount': 2, 'garage': True, 'garageSpaces': 1, 'garageType': 'Garage', 'heating': True, 'heatingType': 'Forced Air', 'coolingType': 'Commercial'}","{'2021': {'year': 2021, 'value': 104500}, '2023': {'year': 2023, 'value': 107800}, '2024': {'year': 2024, 'value': 121300}}","{'2020': {'year': 2020, 'total': 3341}, '2022': {'year': 2022, 'total': 2742}, '2023': {'year': 2023, 'total': 3780}}",R3,"{'names': ['CLOVERLY VILLAGE LLC', 'CLOVERLY VILLAGE REAL EST MGMT L'], 'type': 'Organization', 'mailingAddress': {'id': '2617-Beacon-Hill-Dr,-Auburn-Hills,-MI-48326', 'formattedAddress': '2617 Beacon Hill Dr, Auburn Hills, MI 48326', 'addressLine1': '2617 Beacon Hill Dr', 'addressLine2': None, 'city': 'Auburn Hills', 'state': 'MI', 'stateFips': '26', 'zipCode': '48326'}}",False
"809-Catherine-St,-Ann-Arbor,-MI-48104","809 Catherine St, Ann Arbor, MI 48104",809 Catherine St,,Ann Arbor,MI,48104,42.283165,-83.739604,Apartment,2.0,1.0,,,,,,,,,
"1215-Hill-St,-Ann-Arbor,-MI-48104","1215 Hill St, Ann Arbor, MI 48104",1215 Hill St,,Ann Arbor,MI,48104,42.272504,-83.733832,Multi-Family,5.0,2.0,,,2019.0,,,,,,
"553-S-4th-Ave,-Ann-Arbor,-MI-48104","553 S 4th Ave, Ann Arbor, MI 48104",553 S 4th Ave,,Ann Arbor,MI,48104,42.274373,-83.74733,Apartment,1.0,1.0,,,,,,,,,
"307-Thompson-St,-Ann-Arbor,-MI-48104","307 Thompson St, Ann Arbor, MI 48104",307 Thompson St,,Ann Arbor,MI,48104,42.27911,-83.74326,Apartment,0.0,1.0,312.0,,1967.0,{'unitCount': 48},,,,,
"1205-Island-Dr,-Apt-102,-Ann-Arbor,-MI-48105","1205 Island Dr, Apt 102, Ann Arbor, MI 48105",1205 Island Dr,Apt 102,Ann Arbor,MI,48105,42.290267,-83.730889,Condo,2.0,1.0,871.0,,1964.0,"{'architectureType': 'Condo / Apartment', 'heating': True, 'heatingType': 'Hot Water', 'unitCount': 1}","{'2024': {'year': 2024, 'value': 118700}}","{'2023': {'year': 2023, 'total': 7048}}",R4A,"{'names': ['DEVONSHIRE VENTURES LLC'], 'type': 'Organization', 'mailingAddress': {'id': '2120-Devonshire-Rd,-Ann-Arbor,-MI-48104', 'formattedAddress': '2120 Devonshire Rd, Ann Arbor, MI 48104', 'addressLine1': '2120 Devonshire Rd', 'addressLine2': None, 'city': 'Ann Arbor', 'state': 'MI', 'stateFips': '26', 'zipCode': '48104'}}",False
"410-S-Division-St,-Apt-1,-Ann-Arbor,-MI-48104","410 S Division St, Apt 1, Ann Arbor, MI 48104",410 S Division St,Apt 1,Ann Arbor,MI,48104,42.277454,-83.744177,Condo,4.0,2.0,,,,,,,,,
"301-N-State-St,-Ann-Arbor,-MI-48104","301 N State St, Ann Arbor, MI 48104",301 N State St,,Ann Arbor,MI,48104,42.28302,-83.74094,Apartment,1.0,1.0,,,,,,,,,
"3089-Woodland-Hills-Dr,-Ann-Arbor,-MI-48108","3089 Woodland Hills Dr, Ann Arbor, MI 48108",3089 Woodland Hills Dr,,Ann Arbor,MI,48108,42.242282,-83.673894,Apartment,1.0,1.0,624.0,1129946.0,1967.0,"{'heating': True, 'heatingType': 'Hot Water', 'architectureType': 'Condo / Apartment', 'unitCount': 477}","{'2015': {'year': 2015, 'value': 11707100, 'land': None, 'improvements': None}, '2016': {'year': 2016, 'value': 12248500, 'land': None, 'improvements': None}, '2017': {'year': 2017, 'value': 12698300, 'land': None, 'improvements': None}, '2018': {'year': 2018, 'value': 13708300, 'land': None, 'improvements': None}, '2019': {'year': 2019, 'value': 16042800, 'land': None, 'improvements': None}, '2020': {'year': 2020, 'value': 16706200, 'land': None, 'improvements': None}, '2021': {'year': 2021, 'value': 16862800, 'land': None, 'improvements': None}, '2022': {'year': 2022, 'value': 17130800, 'land': None, 'improvements': None}, '2023': {'year': 2023, 'value': 18868600, 'land': None, 'improvements': None}, '2024': {'year': 2024, 'value': 20057880}}","{'2015': {'year': 2015, 'total': 336418}, '2016': {'year': 2016, 'total': 347124}, '2017': {'year': 2017, 'total': 358241}, '2018': {'year': 2018, 'total': 373045}, '2019': {'year': 2019, 'total': 381173}, '2020': {'year': 2020, 'total': 402460}, '2021': {'year': 2021, 'total': 415991}, '2022': {'year': 2022, 'total': 428629}, '2023': {'year': 2023, 'total': 449576}, '2024': {'year': 2024, 'total': 475940}}",,"{'names': ['WINDOVER ASSOCIATES', 'Andrew Berriz'], 'type': 'Organization', 'mailingAddress': {'id': '320-N-Main-St,-STE-200,-Ann-Arbor,-MI-48104', 'formattedAddress': '320 N Main St, STE 200, Ann Arbor, MI 48104', 'addressLine1': '320 N Main St', 'addressLine2': 'STE 200', 'city': 'Ann Arbor', 'state': 'MI', 'stateFips': '26', 'zipCode': '48104'}}",False
"318-E-Jefferson-St,-Ann-Arbor,-MI-48104","318 E Jefferson St, Ann Arbor, MI 48104",318 E Jefferson St,,Ann Arbor,MI,48104,42.276116,-83.745453,Apartment,1.0,1.0,,,,,,,,,
"114-N-Division-St,-Ann-Arbor,-MI-48104","114 N Division St, Ann Arbor, MI 48104",114 N Division St,,Ann Arbor,MI,48104,42.28182,-83.743445,Apartment,1.0,1.0,,,,,,,,,
"331-Packard-St,-Ann-Arbor,-MI-48104","331 Packard St, Ann Arbor, MI 48104",331 Packard St,,Ann Arbor,MI,48104,42.275218,-83.745147,Apartment,0.0,1.0,,,,,,,,,
"1001-S-Forest-Ave,-Ann-Arbor,-MI-48104","1001 S Forest Ave, Ann Arbor, MI 48104",1001 S Forest Ave,,Ann Arbor,MI,48104,42.27027,-83.732747,Apartment,2.0,1.0,,,,,,,,,
"520-Packard-St,-Ann-Arbor,-MI-48104","520 Packard St, Ann Arbor, MI 48104",520 Packard St,,Ann Arbor,MI,48104,42.27286,-83.742831,Apartment,1.0,1.0,,,,,,,,,
"732-S-Forest-Ave,-Ann-Arbor,-MI-48104","732 S Forest Ave, Ann Arbor, MI 48104",732 S Forest Ave,,Ann Arbor,MI,48104,42.273229,-83.733349,Apartment,2.0,1.0,,,,,,,,,
"1984-Traver-Rd,-Ann-Arbor,-MI-48105","1984 Traver Rd, Ann Arbor, MI 48105",1984 Traver Rd,,Ann Arbor,MI,48105,42.29922,-83.72864,Apartment,1.0,1.0,800.0,,,,,,,,
"1212-Willard-St,-Ann-Arbor,-MI-48104","1212 Willard St, Ann Arbor, MI 48104",1212 Willard St,,Ann Arbor,MI,48104,42.273609,-83.733845,Apartment,0.0,1.0,,,,,,,,,
"1550-Brookfield-Dr,-Ann-Arbor,-MI-48103","1550 Brookfield Dr, Ann Arbor, MI 48103",1550 Brookfield Dr,,Ann Arbor,MI,48103,42.24869,-83.7641,Apartment,2.0,2.0,1100.0,,1985.0,,,,,,
"848-Tappan-Ave,-Ann-Arbor,-MI-48104","848 Tappan Ave, Ann Arbor, MI 48104",848 Tappan Ave,,Ann Arbor,MI,48104,42.27049,-83.73683,Apartment,2.0,1.0,,,,,,,,,
"219-Bucholz-Ct,-Ann-Arbor,-MI-48103","219 Bucholz Ct, Ann Arbor, MI 48103",219 Bucholz Ct,,Ann Arbor,MI,48103,42.283903,-83.760443,Single Family,4.0,1.0,1237.0,4791.0,1930.0,"{'exteriorType': 'Ribbed Aluminum', 'fireplace': True, 'floorCount': 2, 'foundationType': 'Concrete', 'heating': True, 'roomCount': 7, 'unitCount': 1}",,,,,
"903-Mary-St,-Ann-Arbor,-MI-48104","903 Mary St, Ann Arbor, MI 48104",903 Mary St,,Ann Arbor,MI,48104,42.270929,-83.741593,Apartment,1.0,1.0,,,,,,,,,
"424-N-State-St,-Ann-Arbor,-MI-48104","424 N State St, Ann Arbor, MI 48104",424 N State St,,Ann Arbor,MI,48104,42.284654,-83.740763,Condo,1.0,1.0,361.0,,,,,,,,
"208-N-Division-St,-Ann-Arbor,-MI-48104","208 N Division St, Ann Arbor, MI 48104",208 N Division St,,Ann Arbor,MI,48104,42.28237,-83.74375,Apartment,0.0,1.0,,,,,,,,,
"925-Church-St,-Ann-Arbor,-MI-48104","925 Church St, Ann Arbor, MI 48104",925 Church St,,Ann Arbor,MI,48104,42.270648,-83.734133,Apartment,1.0,1.0,700.0,,,,,,,,
"805-Spring-St,-Ann-Arbor,-MI-48103","805 Spring St, Ann Arbor, MI 48103",805 Spring St,,Ann Arbor,MI,48103,42.289188,-83.752575,Single Family,0.0,1.0,,,,,,,,,
"917-Packard-St,-Ann-Arbor,-MI-48104","917 Packard St, Ann Arbor, MI 48104",917 Packard St,,Ann Arbor,MI,48104,42.26808,-83.737369,Apartment,2.0,1.0,,,,,,,,,
"317-E-Ann-St,-Ann-Arbor,-MI-48104","317 E Ann St, Ann Arbor, MI 48104",317 E Ann St,,Ann Arbor,MI,48104,42.282525,-83.745236,Apartment,1.0,1.0,,,,,,,,,
"330-Thompson-St,-Apt-2,-Ann-Arbor,-MI-48104","330 Thompson St, Apt 2, Ann Arbor, MI 48104",330 Thompson St,Apt 2,Ann Arbor,MI,48104,42.27856,-83.743212,Apartment,6.0,3.0,,,,,,,,,
"2960-Birch-Hollow-Dr,-Ann-Arbor,-MI-48108","2960 Birch Hollow Dr, Ann Arbor, MI 48108",2960 Birch Hollow Dr,,Ann Arbor,MI,48108,42.23824,-83.72187,Apartment,1.0,1.0,624.0,,,,,,,,
"1900-W-Liberty-St,-Ann-Arbor,-MI-48103","1900 W Liberty St, Ann Arbor, MI 48103",1900 W Liberty St,,Ann Arbor,MI,48103,42.27686,-83.772381,Apartment,2.0,2.0,950.0,,,,,,,,
"1020-Church-St,---2,-Ann-Arbor,-MI-48104","1020 Church St, # 2, Ann Arbor, MI 48104",1020 Church St,# 2,Ann Arbor,MI,48104,42.269131,-83.734676,Condo,2.0,1.0,,,,,,,,,
"600-E-Kingsley-St,-Ann-Arbor,-MI-48104","600 E Kingsley St, Ann Arbor, MI 48104",600 E Kingsley St,,Ann Arbor,MI,48104,42.284482,-83.741619,Apartment,1.0,1.0,,,,,,,,,
"1328-Forest-Ct,-Ann-Arbor,-MI-48104","1328 Forest Ct, Ann Arbor, MI 48104",1328 Forest Ct,,Ann Arbor,MI,48104,42.273751,-83.731737,Single Family,3.0,2.0,1176.0,2222.0,1917.0,"{'cooling': True, 'coolingType': 'Commercial', 'fireplace': True, 'floorCount': 2, 'foundationType': 'Concrete', 'heating': True, 'heatingType': 'Forced Air', 'roomCount': 6, 'unitCount': 1}","{'2023': {'year': 2023, 'value': 213300}, '2024': {'year': 2024, 'value': 223700}}","{'2022': {'year': 2022, 'total': 9329}, '2023': {'year': 2023, 'total': 12860}}",R4C,"{'names': ['1328 FOREST COURT ZA LLC'], 'mailingAddress': {'id': '414-Huntington-Pl,-Ann-Arbor,-MI-48104', 'formattedAddress': '414 Huntington Pl, Ann Arbor, MI 48104', 'addressLine1': '414 Huntington Pl', 'addressLine2': None, 'city': 'Ann Arbor', 'state': 'MI', 'stateFips': '26', 'zipCode': '48104'}}",False
"410-N-State-St,-Ann-Arbor,-MI-48104","410 N State St, Ann Arbor, MI 48104",410 N State St,,Ann Arbor,MI,48104,42.284251,-83.740888,Apartment,0.0,1.0,,,,,,,,,
"912-Brown-St,-Ann-Arbor,-MI-48104","912 Brown St, Ann Arbor, MI 48104",912 Brown St,,Ann Arbor,MI,48104,42.27022,-83.74865,Apartment,2.0,1.0,,,,,,,,,
"503-Hill-St,-Ann-Arbor,-MI-48104","503 Hill St, Ann Arbor, MI 48104",503 Hill St,,Ann Arbor,MI,48104,42.2718,-83.74308,Apartment,2.0,1.0,767.0,,,,,,,,
"208-W-Ann-St,---2,-Ann-Arbor,-MI-48104","208 W Ann St, # 2, Ann Arbor, MI 48104",208 W Ann St,# 2,Ann Arbor,MI,48104,42.282581,-83.750175,Apartment,2.0,2.0,,,,,,,,,
"330-Thompson-St,-Apt-1,-Ann-Arbor,-MI-48104","330 Thompson St, Apt 1, Ann Arbor, MI 48104",330 Thompson St,Apt 1,Ann Arbor,MI,48104,42.27856,-83.743212,Condo,6.0,2.0,,,,,,,,,
"536-S-4th-Ave,-Ann-Arbor,-MI-48104","536 S 4th Ave, Ann Arbor, MI 48104",536 S 4th Ave,,Ann Arbor,MI,48104,42.274926,-83.747958,Single Family,2.0,1.0,,,,,,,,,
"550-S-Ashley-St,-Ann-Arbor,-MI-48103","550 S Ashley St, Ann Arbor, MI 48103",550 S Ashley St,,Ann Arbor,MI,48103,42.274578,-83.750328,Apartment,1.0,1.0,,,,,,,,,
"727-Packard-St,-Ann-Arbor,-MI-48104","727 Packard St, Ann Arbor, MI 48104",727 Packard St,,Ann Arbor,MI,48104,42.270407,-83.739545,Apartment,3.0,1.0,,,,,,,,,
"808-Brown-St,-Apt-4,-Ann-Arbor,-MI-48104","808 Brown St, Apt 4, Ann Arbor, MI 48104",808 Brown St,Apt 4,Ann Arbor,MI,48104,42.271562,-83.748734,Multi-Family,2.0,1.0,,,,,,,,,
"215-N-State-St,-Ann-Arbor,-MI-48104","215 N State St, Ann Arbor, MI 48104",215 N State St,,Ann Arbor,MI,48104,42.282389,-83.741185,Apartment,0.0,1.0,,,1901.0,,,,,,
"1015-Church-St,-Ann-Arbor,-MI-48104","1015 Church St, Ann Arbor, MI 48104",1015 Church St,,Ann Arbor,MI,48104,42.269622,-83.73431,Apartment,1.0,1.0,,,,,,,,,
"324-E-Jefferson-St,-Ann-Arbor,-MI-48104","324 E Jefferson St, Ann Arbor, MI 48104",324 E Jefferson St,,Ann Arbor,MI,48104,42.276043,-83.751743,Apartment,1.0,1.0,,,,,,,,,
"825-Tappan-Ave,-Ann-Arbor,-MI-48104","825 Tappan Ave, Ann Arbor, MI 48104",825 Tappan Ave,,Ann Arbor,MI,48104,42.271768,-83.737812,Apartment,0.0,1.0,,,1910.0,,,,,,
"813-819-S-Main-St,-Ann-Arbor,-MI-48104","813-819 S Main St, Ann Arbor, MI 48104",813-819 S Main St,,Ann Arbor,MI,48104,42.26496,-83.75021,Apartment,2.0,1.0,,,,,,,,,
"630-Packard-St,-Ann-Arbor,-MI-48104","630 Packard St, Ann Arbor, MI 48104",630 Packard St,,Ann Arbor,MI,48104,42.270971,-83.740848,Apartment,0.0,1.0,,,1920.0,,,,,,
"1338-Washtenaw-Ave,-Ann-Arbor,-MI-48104","1338 Washtenaw Ave, Ann Arbor, MI 48104",1338 Washtenaw Ave,,Ann Arbor,MI,48104,42.275361,-83.732131,Apartment,0.0,1.0,,,,,,,,,
"335-S-Division-St,-Apt-1,-Ann-Arbor,-MI-48104","335 S Division St, Apt 1, Ann Arbor, MI 48104",335 S Division St,Apt 1,Ann Arbor,MI,48104,42.278256,-83.74384,Condo,6.0,3.0,,,,,,,,,
"332-E-William-St,-Ann-Arbor,-MI-48104","332 E William St, Ann Arbor, MI 48104",332 E William St,,Ann Arbor,MI,48104,42.277671,-83.744528,Apartment,1.0,1.0,615.0,,1925.0,,,,,,
"315-Catherine-St,-Ann-Arbor,-MI-48104","315 Catherine St, Ann Arbor, MI 48104",315 Catherine St,,Ann Arbor,MI,48104,42.283283,-83.745482,Apartment,2.0,1.0,,,1965.0,,,,,,
"220-W-Ann-St,-Apt-3,-Ann-Arbor,-MI-48104","220 W Ann St, Apt 3, Ann Arbor, MI 48104",220 W Ann St,Apt 3,Ann Arbor,MI,48104,42.282505,-83.750022,Condo,3.0,2.0,,,,,,,,,
"551-S-Fourth-Ave,-Ann-Arbor,-MI-48104","551 S Fourth Ave, Ann Arbor, MI 48104",551 S Fourth Ave,,Ann Arbor,MI,48104,42.27448,-83.747244,Apartment,0.0,1.0,,,,,,,,,
"511-Hill-St,-Ann-Arbor,-MI-48104","511 Hill St, Ann Arbor, MI 48104",511 Hill St,,Ann Arbor,MI,48104,42.272016,-83.742818,Apartment,5.0,2.0,,5227.0,1910.0,,"{'2019': {'year': 2019, 'value': 247000, 'land': 247000}}","{'2018': {'year': 2018, 'total': 8486}}",,"{'names': ['ISLAND SHORE INVESTMENTS, L L C'], 'mailingAddress': {'id': '608-Packard-St,-Ann-Arbor,-MI-48104', 'addressLine1': '608 Packard St', 'addressLine2': None, 'city': 'Ann Arbor', 'state': 'MI', 'stateFips': '26', 'zipCode': '48104'}}",False
"602-Catherine-St,-Ann-Arbor,-MI-48104","602 Catherine St, Ann Arbor, MI 48104",602 Catherine St,,Ann Arbor,MI,48104,42.282769,-83.741807,Apartment,0.0,1.0,,,,,,,,,
"518-E-William-St,-Ann-Arbor,-MI-48104","518 E William St, Ann Arbor, MI 48104",518 E William St,,Ann Arbor,MI,48104,42.277652,-83.742264,Apartment,1.0,1.0,450.0,,1965.0,,,,,,
"308-Packard-St,-Ann-Arbor,-MI-48104","308 Packard St, Ann Arbor, MI 48104",308 Packard St,,Ann Arbor,MI,48104,42.275314,-83.746127,Apartment,1.0,1.0,,,,,,,,,
"507-Church-St,-Ann-Arbor,-MI-48104","507 Church St, Ann Arbor, MI 48104",507 Church St,,Ann Arbor,MI,48104,42.27659,-83.734478,Single Family,2.0,1.0,,,,,,,,,
"418-E-Washington-St,-Ann-Arbor,-MI-48104","418 E Washington St, Ann Arbor, MI 48104",418 E Washington St,,Ann Arbor,MI,48104,42.280209,-83.743132,Apartment,1.0,1.0,,,,,,,,,
"802-Monroe-St,-Ann-Arbor,-MI-48104","802 Monroe St, Ann Arbor, MI 48104",802 Monroe St,,Ann Arbor,MI,48104,42.273114,-83.739221,Apartment,3.0,1.0,,,,,,,,,
"822-Arch-St,-Ann-Arbor,-MI-48104","822 Arch St, Ann Arbor, MI 48104",822 Arch St,,Ann Arbor,MI,48104,42.26955,-83.738751,Apartment,0.0,1.0,,,,,,,,,
"526-Packard-St,-Ann-Arbor,-MI-48104","526 Packard St, Ann Arbor, MI 48104",526 Packard St,,Ann Arbor,MI,48104,42.272306,-83.742611,Apartment,1.0,1.0,,,,,,,,,
"521-N-Division-St,-Apt-4,-Ann-Arbor,-MI-48104","521 N Division St, Apt 4, Ann Arbor, MI 48104",521 N Division St,Apt 4,Ann Arbor,MI,48104,42.285455,-83.743631,Multi-Family,1.0,1.0,,,,,,,,,
"511-E-Hoover-Ave,-Ann-Arbor,-MI-48104","511 E Hoover Ave, Ann Arbor, MI 48104",511 E Hoover Ave,,Ann Arbor,MI,48104,42.269903,-83.742671,Condo,1.0,1.0,,,,,,,,,
"909-Packard-St,-Ann-Arbor,-MI-48104","909 Packard St, Ann Arbor, MI 48104",909 Packard St,,Ann Arbor,MI,48104,42.268441,-83.737437,Multi-Family,12.0,3.0,4168.0,9583.0,2007.0,,,,,,
"911-S-Forest-Ave,-Ann-Arbor,-MI-48104","911 S Forest Ave, Ann Arbor, MI 48104",911 S Forest Ave,,Ann Arbor,MI,48104,42.271107,-83.733406,Apartment,2.0,1.0,,,,,,,,,
"521-Walnut-St,-Ann-Arbor,-MI-48104","521 Walnut St, Ann Arbor, MI 48104",521 Walnut St,,Ann Arbor,MI,48104,42.275949,-83.72913,Apartment,2.0,1.0,,,,,,,,,
"801-W-Madison-St,-Ann-Arbor,-MI-48103","801 W Madison St, Ann Arbor, MI 48103",801 W Madison St,,Ann Arbor,MI,48103,42.273941,-83.757199,Apartment,2.0,1.0,645.0,,,,,,,,
"401-Lawrence-St,-Apt-4,-Ann-Arbor,-MI-48104","401 Lawrence St, Apt 4, Ann Arbor, MI 48104",401 Lawrence St,Apt 4,Ann Arbor,MI,48104,42.284044,-83.743408,Condo,0.0,1.0,,,,,,,,,
"618-Packard-St,-Ann-Arbor,-MI-48104","618 Packard St, Ann Arbor, MI 48104",618 Packard St,,Ann Arbor,MI,48104,42.271371,-83.741147,Apartment,0.0,1.0,,,1925.0,,,,,,
"921-Mary-St,-Ann-Arbor,-MI-48104","921 Mary St, Ann Arbor, MI 48104",921 Mary St,,Ann Arbor,MI,48104,42.270391,-83.741469,Apartment,3.0,2.0,,,,,,,,,
"625-Church-St,-Ann-Arbor,-MI-48104","625 Church St, Ann Arbor, MI 48104",625 Church St,,Ann Arbor,MI,48104,42.274125,-83.734278,Apartment,0.0,1.0,,,,,,,,,
"322-N-State-St,-Ann-Arbor,-MI-48104","322 N State St, Ann Arbor, MI 48104",322 N State St,,Ann Arbor,MI,48104,42.2832,-83.74095,Apartment,1.0,1.0,,,,,,,,,
"1223-Hill-St,-Ann-Arbor,-MI-48104","1223 Hill St, Ann Arbor, MI 48104",1223 Hill St,,Ann Arbor,MI,48104,42.272216,-83.734213,Apartment,1.0,1.0,,,,,,,,,
"339-S-Division-St,-Apt-5,-Ann-Arbor,-MI-48104","339 S Division St, Apt 5, Ann Arbor, MI 48104",339 S Division St,Apt 5,Ann Arbor,MI,48104,42.278149,-83.743805,Condo,3.0,1.0,,,,,,,,,
"209-N-Ingalls-St,-Ann-Arbor,-MI-48104","209 N Ingalls St, Ann Arbor, MI 48104",209 N Ingalls St,,Ann Arbor,MI,48104,42.28224,-83.738552,Apartment,1.0,1.0,,,,,,,,,
"309-E-Jefferson-St,-Apt-2,-Ann-Arbor,-MI-48104","309 E Jefferson St, Apt 2, Ann Arbor, MI 48104",309 E Jefferson St,Apt 2,Ann Arbor,MI,48104,42.276246,-83.745827,Apartment,6.0,2.0,,,,,,,,,
"1219-S-State-St,-Ann-Arbor,-MI-48104","1219 S State St, Ann Arbor, MI 48104",1219 S State St,,Ann Arbor,MI,48104,42.266599,-83.740229,Apartment,2.0,1.0,,,,,,,,,
"1010-Catherine-St,-Ann-Arbor,-MI-48104","1010 Catherine St, Ann Arbor, MI 48104",1010 Catherine St,,Ann Arbor,MI,48104,42.282964,-83.736947,Apartment,2.0,1.0,,,,,,,,,
"915-Oakland-Ave,-Apt-1,-Ann-Arbor,-MI-48104","915 Oakland Ave, Apt 1, Ann Arbor, MI 48104",915 Oakland Ave,Apt 1,Ann Arbor,MI,48104,42.270597,-83.738411,Condo,6.0,2.0,,,,,,,,,
"1100-S-Forest-Ave,-Ann-Arbor,-MI-48104","1100 S Forest Ave, Ann Arbor, MI 48104",1100 S Forest Ave,,Ann Arbor,MI,48104,42.268948,-83.733444,Apartment,1.0,1.0,,,,,,,,,
"909-Mary-St,-Ann-Arbor,-MI-48104","909 Mary St, Ann Arbor, MI 48104",909 Mary St,,Ann Arbor,MI,48104,42.270782,-83.741379,Single Family,6.0,3.0,2084.0,6098.0,1901.0,"{'fireplace': True, 'foundationType': 'Brick', 'heating': True, 'heatingType': 'Forced Air', 'roomCount': 11, 'unitCount': 1, 'cooling': True, 'coolingType': 'Commercial', 'floorCount': 2, 'garage': True, 'garageType': 'Garage'}","{'2019': {'year': 2019, 'value': 221300, 'land': 221300}, '2024': {'year': 2024, 'value': 296100}}","{'2018': {'year': 2018, 'total': 7410}, '2023': {'year': 2023, 'total': 8960}}",R4C,"{'names': ['QUIT CLAIM TO STATE PACKARD LLC'], 'type': 'Organization', 'mailingAddress': {'id': 'PO-BOX-1574,-Arroyo-Grande,-CA-93421', 'formattedAddress': 'PO BOX 1574, Arroyo Grande, CA 93421', 'addressLine1': 'PO BOX 1574', 'addressLine2': None, 'city': 'Arroyo Grande', 'state': 'CA', 'stateFips': '06', 'zipCode': '93421'}}",False
"513-Elm-St,-Ann-Arbor,-MI-48104","513 Elm St, Ann Arbor, MI 48104",513 Elm St,,Ann Arbor,MI,48104,42.27644,-83.730118,Apartment,2.0,1.0,,,,,,,,,
"408-Hill-St,-Ann-Arbor,-MI-48104","408 Hill St, Ann Arbor, MI 48104",408 Hill St,,Ann Arbor,MI,48104,42.268295,-83.740209,Apartment,1.0,1.0,,,1965.0,,,,,,
"809-E-Kingsley-St,-Ann-Arbor,-MI-48104","809 E Kingsley St, Ann Arbor, MI 48104",809 E Kingsley St,,Ann Arbor,MI,48104,42.285245,-83.739353,Apartment,1.0,1.0,,,,,,,,,
"730-S-State-St,-Ann-Arbor,-MI-48104","730 S State St, Ann Arbor, MI 48104",730 S State St,,Ann Arbor,MI,48104,42.272233,-83.740975,Multi-Family,6.0,2.0,,,1885.0,,,,,,
"805-E-Huron-St,-Ann-Arbor,-MI-48104","805 E Huron St, Ann Arbor, MI 48104",805 E Huron St,,Ann Arbor,MI,48104,42.281473,-83.739301,Single Family,3.0,2.0,,,,,,,,,
"320-S-Division-St,-Ann-Arbor,-MI-48104","320 S Division St, Ann Arbor, MI 48104",320 S Division St,,Ann Arbor,MI,48104,42.278799,-83.744421,Apartment,0.0,1.0,500.0,,,,,,,,
"826-Mckinley-Ave,-Ann-Arbor,-MI-48104","826 Mckinley Ave, Ann Arbor, MI 48104",826 Mckinley Ave,,Ann Arbor,MI,48104,42.267663,-83.737769,Single Family,1.0,1.0,,,,,,,,,
"1352-Wilmot-Ct,-Ann-Arbor,-MI-48104","1352 Wilmot Ct, Ann Arbor, MI 48104",1352 Wilmot Ct,,Ann Arbor,MI,48104,42.276304,-83.730872,Apartment,0.0,1.0,,,,,,,,,
"426-S-Division-St,-Ann-Arbor,-MI-48104","426 S Division St, Ann Arbor, MI 48104",426 S Division St,,Ann Arbor,MI,48104,42.276956,-83.744547,Apartment,0.0,1.0,,,,,,,,,
"601-E-William-St,-Ann-Arbor,-MI-48104","601 E William St, Ann Arbor, MI 48104",601 E William St,,Ann Arbor,MI,48104,42.277937,-83.741805,Apartment,1.0,1.0,,,,,,,,,
"713-Catherine-St,-Ann-Arbor,-MI-48104","713 Catherine St, Ann Arbor, MI 48104",713 Catherine St,,Ann Arbor,MI,48104,42.283195,-83.740255,Apartment,1.0,1.0,,,,,,,,,
"1288-Broadway-St,-Ann-Arbor,-MI-48105","1288 Broadway St, Ann Arbor, MI 48105",1288 Broadway St,,Ann Arbor,MI,48105,42.290932,-83.734414,Apartment,4.0,3.0,,,,,,,,,
"711-E-Ann-St,-Ann-Arbor,-MI-48104","711 E Ann St, Ann Arbor, MI 48104",711 E Ann St,,Ann Arbor,MI,48104,42.28221,-83.740758,Apartment,2.0,1.0,,,,,,,,,
"520-N-Ashley-St,-Ann-Arbor,-MI-48103","520 N Ashley St, Ann Arbor, MI 48103",520 N Ashley St,,Ann Arbor,MI,48103,42.285637,-83.749199,Townhouse,1.0,1.0,,,1972.0,,,,,,
"1014-Church-St,-Ann-Arbor,-MI-48104","1014 Church St, Ann Arbor, MI 48104",1014 Church St,,Ann Arbor,MI,48104,42.269549,-83.734799,Apartment,0.0,1.0,,,1965.0,,,,,,
"1346-Geddes-Ave,-Ann-Arbor,-MI-48104","1346 Geddes Ave, Ann Arbor, MI 48104",1346 Geddes Ave,,Ann Arbor,MI,48104,42.277157,-83.73151,Apartment,3.0,1.0,,,,,,,,,
"311-Thompson-St,-Ann-Arbor,-MI-48104","311 Thompson St, Ann Arbor, MI 48104",311 Thompson St,,Ann Arbor,MI,48104,42.279116,-83.743114,Apartment,1.0,1.0,,,,,,,,,
"727-E-Kingsley-St,-Ann-Arbor,-MI-48104","727 E Kingsley St, Ann Arbor, MI 48104",727 E Kingsley St,,Ann Arbor,MI,48104,42.284933,-83.739684,Apartment,2.0,1.0,,,1965.0,,,,,,
"315-S-Division-St,-Ann-Arbor,-MI-48104","315 S Division St, Ann Arbor, MI 48104",315 S Division St,,Ann Arbor,MI,48104,42.27921,-83.74405,Apartment,0.0,1.0,390.0,,,,,,,,
"802-Oakland-Ave,-Ann-Arbor,-MI-48104","802 Oakland Ave, Ann Arbor, MI 48104",802 Oakland Ave,,Ann Arbor,MI,48104,42.271813,-83.739555,Multi-Family,,,,,1895.0,,,,,,
"217-Packard,-Ann-Arbor,-MI-48104","217 Packard, Ann Arbor, MI 48104",217 Packard,,Ann Arbor,MI,48104,42.276073,-83.746941,Apartment,4.0,4.0,,,,,,,,,
"423-425-Hamilton-Pl,-Ann-Arbor,-MI-48104","423-425 Hamilton Pl, Ann Arbor, MI 48104",423-425 Hamilton Pl,,Ann Arbor,MI,48104,42.277069,-83.744968,Apartment,0.0,1.0,,,,,,,,,
"1335-Geddes-Ave,-Ann-Arbor,-MI-48104","1335 Geddes Ave, Ann Arbor, MI 48104",1335 Geddes Ave,,Ann Arbor,MI,48104,42.277561,-83.732269,Apartment,2.0,1.0,,,,,,,,,
"1327-Wilmot,-Ann-Arbor,-MI-48104","1327 Wilmot, Ann Arbor, MI 48104",1327 Wilmot,,Ann Arbor,MI,48104,42.276445,-83.730847,Apartment,2.0,1.0,,,,,,,,,
"539-Packard-St,-Ann-Arbor,-MI-48104","539 Packard St, Ann Arbor, MI 48104",539 Packard St,,Ann Arbor,MI,48104,42.272378,-83.741867,Apartment,3.0,2.0,,,,,,,,,
"1014-Granger-Ave,-Ann-Arbor,-MI-48104","1014 Granger Ave, Ann Arbor, MI 48104",1014 Granger Ave,,Ann Arbor,MI,48104,42.264072,-83.73716,Apartment,2.0,1.0,,,,,,,,,
"503-Church-St,-Ann-Arbor,-MI-48104","503 Church St, Ann Arbor, MI 48104",503 Church St,,Ann Arbor,MI,48104,42.276656,-83.734368,Apartment,0.0,1.0,,,,,,,,,
"602-Monroe-St,-Ann-Arbor,-MI-48104","602 Monroe St, Ann Arbor, MI 48104",602 Monroe St,,Ann Arbor,MI,48104,42.273014,-83.741857,Apartment,1.0,1.0,,,,,,,,,
"908-Sybil-St,-Ann-Arbor,-MI-48104","908 Sybil St, Ann Arbor, MI 48104",908 Sybil St,,Ann Arbor,MI,48104,42.270555,-83.743416,Apartment,2.0,1.0,,,1965.0,,,,,,
"1026-Vaughn-St,-Ann-Arbor,-MI-48104","1026 Vaughn St, Ann Arbor, MI 48104",1026 Vaughn St,,Ann Arbor,MI,48104,42.26877,-83.736364,Apartment,2.0,1.0,,,1965.0,,,,,,
"817-Arch-St,-Ann-Arbor,-MI-48104","817 Arch St, Ann Arbor, MI 48104",817 Arch St,,Ann Arbor,MI,48104,42.269737,-83.738899,Apartment,2.0,1.0,,,1965.0,,,,,,
"200-N-State-St,-Ann-Arbor,-MI-48104","200 N State St, Ann Arbor, MI 48104",200 N State St,,Ann Arbor,MI,48104,42.28223,-83.74092,Apartment,1.0,1.0,,,,,,,,,
"401-W-Hoover-Ave,-Ann-Arbor,-MI-48103","401 W Hoover Ave, Ann Arbor, MI 48103",401 W Hoover Ave,,Ann Arbor,MI,48103,42.269195,-83.75249,Apartment,1.0,1.0,,,1937.0,,,,,,
"414-S-Division-St,-Ann-Arbor,-MI-48104","414 S Division St, Ann Arbor, MI 48104",414 S Division St,,Ann Arbor,MI,48104,42.277276,-83.744531,Apartment,0.0,1.0,,,1908.0,,,,,,
"907-E-Huron-St,-Ann-Arbor,-MI-48104","907 E Huron St, Ann Arbor, MI 48104",907 E Huron St,,Ann Arbor,MI,48104,42.281358,-83.738028,Single Family,6.0,1.5,3080.0,3136.0,1997.0,"{'cooling': True, 'coolingType': 'Commercial', 'fireplace': True, 'floorCount': 2, 'foundationType': 'Concrete', 'heating': True, 'heatingType': 'Forced Air', 'roomCount': 10, 'unitCount': 1}","{'2024': {'year': 2024, 'value': 387700}}","{'2023': {'year': 2023, 'total': 9914}}",R4C,"{'names': ['MAGOON,TR'], 'mailingAddress': {'id': '2511-S-State-St,-Ann-Arbor,-MI-48104', 'formattedAddress': '2511 S State St, Ann Arbor, MI 48104', 'addressLine1': '2511 S State St', 'addressLine2': None, 'city': 'Ann Arbor', 'state': 'MI', 'stateFips': '26', 'zipCode': '48104'}}",False
"425-Hill-St,-Ann-Arbor,-MI-48104","425 Hill St, Ann Arbor, MI 48104",425 Hill St,,Ann Arbor,MI,48104,42.27179,-83.74415,Apartment,2.0,1.0,,,,,,,,,
"442-3rd-St,-Ann-Arbor,-MI-48103","442 3rd St, Ann Arbor, MI 48103",442 3rd St,,Ann Arbor,MI,48103,42.27654,-83.753929,Apartment,2.0,1.0,,,1967.0,,,,,,
"1121-Church-St,-Ann-Arbor,-MI-48104","1121 Church St, Ann Arbor, MI 48104",1121 Church St,,Ann Arbor,MI,48104,42.2685,-83.734108,Single Family,9.0,2.5,2925.0,6578.0,1915.0,"{'cooling': True, 'coolingType': 'Commercial', 'fireplace': True, 'floorCount': 2, 'foundationType': 'Concrete', 'heating': True, 'heatingType': 'Forced Air', 'roomCount': 16, 'unitCount': 1}","{'2023': {'year': 2023, 'value': 276700}, '2024': {'year': 2024, 'value': 319000}}","{'2022': {'year': 2022, 'total': 7183}, '2023': {'year': 2023, 'total': 9901}}",R4C,"{'names': ['1121-1123 CHURCH LLC'], 'type': 'Organization', 'mailingAddress': {'id': '1207-Packard-St,---N-2,-Ann-Arbor,-MI-48104', 'formattedAddress': '1207 Packard St, # N-2, Ann Arbor, MI 48104', 'addressLine1': '1207 Packard St', 'addressLine2': '# N-2', 'city': 'Ann Arbor', 'state': 'MI', 'stateFips': '26', 'zipCode': '48104'}}",False
"508-N-4th-Ave,-Ann-Arbor,-MI-48104","508 N 4th Ave, Ann Arbor, MI 48104",508 N 4th Ave,,Ann Arbor,MI,48104,42.285225,-83.74679,Single Family,3.0,2.0,1856.0,5532.0,1901.0,"{'fireplace': True, 'floorCount': 2, 'foundationType': 'Brick', 'heating': True, 'heatingType': 'Forced Air', 'roomCount': 7, 'unitCount': 1}","{'2024': {'year': 2024, 'value': 196900}}","{'2023': {'year': 2023, 'total': 6299}}",R4C,"{'names': ['Samuel L Perry', 'Pattie R Perry'], 'type': 'Individual', 'mailingAddress': {'id': 'PO-BOX-7222,-Ann-Arbor,-MI-48107', 'formattedAddress': 'PO BOX 7222, Ann Arbor, MI 48107', 'addressLine1': 'PO BOX 7222', 'addressLine2': None, 'city': 'Ann Arbor', 'state': 'MI', 'stateFips': '26', 'zipCode': '48107'}}",False
"1825-Hill-St,-Ann-Arbor,-MI-48104","1825 Hill St, Ann Arbor, MI 48104",1825 Hill St,,Ann Arbor,MI,48104,42.273699,-83.724875,Single Family,3.0,2.0,1181.0,3920.0,1925.0,"{'fireplace': True, 'floorCount': 2, 'foundationType': 'Concrete', 'heating': True, 'heatingType': 'Forced Air', 'roomCount': 8, 'unitCount': 1}","{'2024': {'year': 2024, 'value': 205900}}","{'2023': {'year': 2023, 'total': 12406}}",R2B,"{'names': ['CHURCHILL LLC'], 'type': 'Organization', 'mailingAddress': {'id': '618-Church-St,-Ann-Arbor,-MI-48104', 'formattedAddress': '618 Church St, Ann Arbor, MI 48104', 'addressLine1': '618 Church St', 'addressLine2': None, 'city': 'Ann Arbor', 'state': 'MI', 'stateFips': '26', 'zipCode': '48104'}}",False
"321-S-Division-St,-Ann-Arbor,-MI-48104","321 S Division St, Ann Arbor, MI 48104",321 S Division St,,Ann Arbor,MI,48104,42.278975,-83.743981,Apartment,0.0,1.0,,,,,,,,,
"324-Thompson-St,-Ann-Arbor,-MI-48104","324 Thompson St, Ann Arbor, MI 48104",324 Thompson St,,Ann Arbor,MI,48104,42.278912,-83.743448,Apartment,0.0,1.0,,,1901.0,,,,,,
"728-S-Main-St,-Ann-Arbor,-MI-48104","728 S Main St, Ann Arbor, MI 48104",728 S Main St,,Ann Arbor,MI,48104,42.271754,-83.750167,Apartment,1.0,1.0,,,,,,,,,
"315-N-Thayer-St,-Ann-Arbor,-MI-48104","315 N Thayer St, Ann Arbor, MI 48104",315 N Thayer St,,Ann Arbor,MI,48104,42.283493,-83.740022,Apartment,1.0,1.0,,,1883.0,,,,,,
"508-S-Division-St,-Ann-Arbor,-MI-48104","508 S Division St, Ann Arbor, MI 48104",508 S Division St,,Ann Arbor,MI,48104,42.275819,-83.744608,Apartment,0.0,1.0,,,,,,,,,
"422-Hamilton-Pl,-Ann-Arbor,-MI-48104","422 Hamilton Pl, Ann Arbor, MI 48104",422 Hamilton Pl,,Ann Arbor,MI,48104,42.277141,-83.745452,Apartment,2.0,1.0,,,,,,,,,
"110-Hill-St,-Ann-Arbor,-MI-48104","110 Hill St, Ann Arbor, MI 48104",110 Hill St,,Ann Arbor,MI,48104,42.271416,-83.749161,Apartment,2.0,1.0,,,,,,,,,
"404-N-Thayer-St,-Ann-Arbor,-MI-48104","404 N Thayer St, Ann Arbor, MI 48104",404 N Thayer St,,Ann Arbor,MI,48104,42.28418,-83.739574,Apartment,3.0,1.0,,,,,,,,,
"323-Packard-St,-Ann-Arbor,-MI-48104","323 Packard St, Ann Arbor, MI 48104",323 Packard St,,Ann Arbor,MI,48104,42.274769,-83.74496,Apartment,1.0,1.0,,,,,,,,,
"123-N-State-St,-Ann-Arbor,-MI-48104","123 N State St, Ann Arbor, MI 48104",123 N State St,,Ann Arbor,MI,48104,42.281883,-83.741149,Apartment,2.0,1.0,,,1901.0,,,,,,
"904-S-State-St,-Ann-Arbor,-MI-48104","904 S State St, Ann Arbor, MI 48104",904 S State St,,Ann Arbor,MI,48104,42.270682,-83.740965,Apartment,0.0,1.0,300.0,,1966.0,,,,,,
"922-S-State-St,-Apt-1,-Ann-Arbor,-MI-48104","922 S State St, Apt 1, Ann Arbor, MI 48104",922 S State St,Apt 1,Ann Arbor,MI,48104,42.270163,-83.740613,Condo,3.0,1.0,,,,,,,,,
"2225-S-State-St,-Ann-Arbor,-MI-48104","2225 S State St, Ann Arbor, MI 48104",2225 S State St,,Ann Arbor,MI,48104,42.25467,-83.73788,Apartment,3.0,2.0,1172.0,,2016.0,,,,,,
"723-W-Madison-St,-Ann-Arbor,-MI-48103","723 W Madison St, Ann Arbor, MI 48103",723 W Madison St,,Ann Arbor,MI,48103,42.27365,-83.757039,Apartment,2.0,1.0,,,,,,,,,
"1114-Prospect-St,-Ann-Arbor,-MI-48104","1114 Prospect St, Ann Arbor, MI 48104",1114 Prospect St,,Ann Arbor,MI,48104,42.267964,-83.735078,Single Family,11.0,4.0,2400.0,6621.0,1912.0,"{'cooling': True, 'coolingType': 'Commercial', 'fireplace': True, 'floorCount': 2, 'foundationType': 'Brick', 'garage': True, 'garageType': 'Garage', 'heating': True, 'heatingType': 'Forced Air', 'roomCount': 13, 'unitCount': 1}","{'2023': {'year': 2023, 'value': 289200}, '2024': {'year': 2024, 'value': 335000}}","{'2022': {'year': 2022, 'total': 9555}, '2023': {'year': 2023, 'total': 13172}}",R4C,"{'names': ['Shah Navinchandra'], 'type': 'Individual', 'mailingAddress': {'id': '1401-Lincoln-Ave,-Ann-Arbor,-MI-48104', 'formattedAddress': '1401 Lincoln Ave, Ann Arbor, MI 48104', 'addressLine1': '1401 Lincoln Ave', 'addressLine2': None, 'city': 'Ann Arbor', 'state': 'MI', 'stateFips': '26', 'zipCode': '48104'}}",False
"311-S-Division-St,-Ann-Arbor,-MI-48104","311 S Division St, Ann Arbor, MI 48104",311 S Division St,,Ann Arbor,MI,48104,42.279256,-83.743947,Apartment,1.0,1.0,,,,,,,,,
"312-E-Jefferson-St,-Ann-Arbor,-MI-48104","312 E Jefferson St, Ann Arbor, MI 48104",312 E Jefferson St,,Ann Arbor,MI,48104,42.275987,-83.745621,Apartment,1.0,1.0,,,,,,,,,
"910-Packard-St,-Ann-Arbor,-MI-48104","910 Packard St, Ann Arbor, MI 48104",910 Packard St,,Ann Arbor,MI,48104,42.268062,-83.738034,Apartment,2.0,1.0,,,1963.0,,,,,,
"607-E-Ann-St,-Ann-Arbor,-MI-48104","607 E Ann St, Ann Arbor, MI 48104",607 E Ann St,,Ann Arbor,MI,48104,42.282434,-83.741682,Apartment,2.0,1.0,,,,,,,,,
"333-S-Division-St,-Apt-1,-Ann-Arbor,-MI-48104","333 S Division St, Apt 1, Ann Arbor, MI 48104",333 S Division St,Apt 1,Ann Arbor,MI,48104,42.278727,-83.744114,Apartment,1.0,1.0,,,,,,,,,
"815-Lawrence-St,-Apt-2,-Ann-Arbor,-MI-48104","815 Lawrence St, Apt 2, Ann Arbor, MI 48104",815 Lawrence St,Apt 2,Ann Arbor,MI,48104,42.284168,-83.739107,Condo,6.0,2.0,,,,,,,,,
"432-S-Division-St,-Ann-Arbor,-MI-48104","432 S Division St, Ann Arbor, MI 48104",432 S Division St,,Ann Arbor,MI,48104,42.277204,-83.744406,Apartment,0.0,1.0,,,,,,,,,
"913-Mary-St,-Ann-Arbor,-MI-48104","913 Mary St, Ann Arbor, MI 48104",913 Mary St,,Ann Arbor,MI,48104,42.270676,-83.741534,Apartment,2.0,1.0,700.0,,,,,,,,
"1341-Geddes-Ave,-Ann-Arbor,-MI-48104","1341 Geddes Ave, Ann Arbor, MI 48104",1341 Geddes Ave,,Ann Arbor,MI,48104,42.277567,-83.732092,Apartment,2.0,1.0,,,,,,,,,
"1015-Vaughn-St,-Ann-Arbor,-MI-48104","1015 Vaughn St, Ann Arbor, MI 48104",1015 Vaughn St,,Ann Arbor,MI,48104,42.269181,-83.737038,Apartment,1.0,1.0,,,,,,,,,
"1015-E-Ann-St,-Ann-Arbor,-MI-48104","1015 E Ann St, Ann Arbor, MI 48104",1015 E Ann St,,Ann Arbor,MI,48104,42.282492,-83.736381,Apartment,2.0,1.0,,,,,,,,,
"512-N-Ashley-St,-Ann-Arbor,-MI-48103","512 N Ashley St, Ann Arbor, MI 48103",512 N Ashley St,,Ann Arbor,MI,48103,42.285446,-83.749275,Apartment,1.0,1.0,,,1972.0,,,,,,
"333-S-Division-St,-Apt-8,-Ann-Arbor,-MI-48104","333 S Division St, Apt 8, Ann Arbor, MI 48104",333 S Division St,Apt 8,Ann Arbor,MI,48104,42.278371,-83.74384,Apartment,5.0,2.0,,,,,,,,,
"306-Thompson-St,-Ann-Arbor,-MI-48104","306 Thompson St, Ann Arbor, MI 48104",306 Thompson St,,Ann Arbor,MI,48104,42.27933,-83.74326,Apartment,2.0,1.0,,,,,,,,,
"625-N-4th-Ave,---1,-Ann-Arbor,-MI-48104","625 N 4th Ave, # 1, Ann Arbor, MI 48104",625 N 4th Ave,# 1,Ann Arbor,MI,48104,42.286186,-83.747276,Condo,6.0,2.0,,,,,,,,,
"824-Packard-St,-Ann-Arbor,-MI-48104","824 Packard St, Ann Arbor, MI 48104",824 Packard St,,Ann Arbor,MI,48104,42.268485,-83.738646,Apartment,4.0,2.0,,,,,,,,,
"200-Briarcrest-Dr,-Ann-Arbor,-MI-48104","200 Briarcrest Dr, Ann Arbor, MI 48104",200 Briarcrest Dr,,Ann Arbor,MI,48104,42.24682,-83.745189,Apartment,2.0,2.0,,,1988.0,,,,,,
"1005-Maiden-Ln,-Ann-Arbor,-MI-48105","1005 Maiden Ln, Ann Arbor, MI 48105",1005 Maiden Ln,,Ann Arbor,MI,48105,42.2899,-83.73347,Apartment,1.0,1.0,585.0,,,{'unitCount': 201},,,,,
"396-W-Delhi-Rd,-Ann-Arbor,-MI-48103","396 W Delhi Rd, Ann Arbor, MI 48103",396 W Delhi Rd,,Ann Arbor,MI,48103,42.291763,-83.817687,Apartment,2.0,2.0,,,1966.0,,,,,,
"510-Lawrence-St,-Apt-1,-Ann-Arbor,-MI-48104","510 Lawrence St, Apt 1, Ann Arbor, MI 48104",510 Lawrence St,Apt 1,Ann Arbor,MI,48104,42.283868,-83.742358,Apartment,2.0,1.0,,,,,,,,,
"733-Oakland-Ave,-Ann-Arbor,-MI-48104","733 Oakland Ave, Ann Arbor, MI 48104",733 Oakland Ave,,Ann Arbor,MI,48104,42.272085,-83.73922,Multi-Family,5.0,2.0,,,1875.0,,,,,,
"916-Sybil-St,-Apt-1,-Ann-Arbor,-MI-48104","916 Sybil St, Apt 1, Ann Arbor, MI 48104",916 Sybil St,Apt 1,Ann Arbor,MI,48104,42.270159,-83.743327,Condo,5.0,2.0,,,,,,,,,
"1340-N-University-Ct,-Ann-Arbor,-MI-48104","1340 N University Ct, Ann Arbor, MI 48104",1340 N University Ct,,Ann Arbor,MI,48104,42.278095,-83.731625,Apartment,0.0,1.0,,,,,,,,,
"508-Lawrence-St,-Apt-5,-Ann-Arbor,-MI-48104","508 Lawrence St, Apt 5, Ann Arbor, MI 48104",508 Lawrence St,Apt 5,Ann Arbor,MI,48104,42.283868,-83.742379,Condo,6.0,3.0,,,,,,,,,
"505-E-Hoover-Ave,-Ann-Arbor,-MI-48104","505 E Hoover Ave, Ann Arbor, MI 48104",505 E Hoover Ave,,Ann Arbor,MI,48104,42.269918,-83.742877,Single Family,0.0,1.0,,,,,,,,,
"1506-Geddes-Ave,-Ann-Arbor,-MI-48104","1506 Geddes Ave, Ann Arbor, MI 48104",1506 Geddes Ave,,Ann Arbor,MI,48104,42.276603,-83.72875,Apartment,3.0,1.0,,,,,,,,,
"1000-Oakland-Ave,-Ann-Arbor,-MI-48104","1000 Oakland Ave, Ann Arbor, MI 48104",1000 Oakland Ave,,Ann Arbor,MI,48104,42.270127,-83.737834,Apartment,2.0,1.0,,,,,,,,,
"527-S-4th-Ave,-Ann-Arbor,-MI-48104","527 S 4th Ave, Ann Arbor, MI 48104",527 S 4th Ave,,Ann Arbor,MI,48104,42.27515,-83.747292,Apartment,1.0,1.0,,,,,,,,,
"929-S-Division-St,-Ann-Arbor,-MI-48104","929 S Division St, Ann Arbor, MI 48104",929 S Division St,,Ann Arbor,MI,48104,42.270422,-83.744294,Apartment,0.0,1.0,,,,,,,,,
"110-N-Thayer-St,-Ann-Arbor,-MI-48104","110 N Thayer St, Ann Arbor, MI 48104",110 N Thayer St,,Ann Arbor,MI,48104,42.281365,-83.739515,Apartment,1.0,1.0,,,,,,,,,
"1000-E-Ann-St,-Apt-5,-Ann-Arbor,-MI-48104","1000 E Ann St, Apt 5, Ann Arbor, MI 48104",1000 E Ann St,Apt 5,Ann Arbor,MI,48104,42.282191,-83.736807,Condo,5.0,2.0,,,,,,,,,
"624-Packard-St,-Ann-Arbor,-MI-48104","624 Packard St, Ann Arbor, MI 48104",624 Packard St,,Ann Arbor,MI,48104,42.271081,-83.741186,Apartment,0.0,1.0,,,1920.0,,,,,,
"1117-W-Huron-St,-Ann-Arbor,-MI-48103","1117 W Huron St, Ann Arbor, MI 48103",1117 W Huron St,,Ann Arbor,MI,48103,42.281544,-83.76181,Apartment,2.0,1.0,,,1965.0,,,,,,
"306-E-Madison-St,-Ann-Arbor,-MI-48104","306 E Madison St, Ann Arbor, MI 48104",306 E Madison St,,Ann Arbor,MI,48104,42.273946,-83.745954,Single Family,6.0,3.0,1315.0,2962.0,1901.0,"{'fireplace': True, 'floorCount': 2, 'foundationType': 'Brick', 'heating': True, 'heatingType': 'Forced Air', 'roomCount': 11, 'unitCount': 1}","{'2022': {'year': 2022, 'value': 209100}, '2024': {'year': 2024}}","{'2022': {'year': 2022, 'total': 5737}, '2023': {'year': 2023, 'total': 8044}}",R4C,"{'names': ['MCKINLEY ASSOCIATES ACCQUISITIONS L'], 'type': 'Organization', 'mailingAddress': {'id': '326-E-HOOVER-MAIL-E,-Ann-Arbor,-MI-48109', 'formattedAddress': '326 E HOOVER MAIL E, Ann Arbor, MI 48109', 'addressLine1': '326 E HOOVER MAIL E', 'addressLine2': None, 'city': 'Ann Arbor', 'state': 'MI', 'stateFips': '26', 'zipCode': '48109'}}",False
"344-S-Division-St,-Ann-Arbor,-MI-48104","344 S Division St, Ann Arbor, MI 48104",344 S Division St,,Ann Arbor,MI,48104,42.277991,-83.744355,Apartment,0.0,1.0,,,,,,,,,
"410-Observatory-St,-Ann-Arbor,-MI-48104","410 Observatory St, Ann Arbor, MI 48104",410 Observatory St,,Ann Arbor,MI,48104,42.27801,-83.731338,Apartment,2.0,1.0,,,,,,,,,
"922-S-State-St,-Apt-2,-Ann-Arbor,-MI-48104","922 S State St, Apt 2, Ann Arbor, MI 48104",922 S State St,Apt 2,Ann Arbor,MI,48104,42.270163,-83.740613,Apartment,1.0,1.0,,,,,,,,,
"426-Packard-St,-Ann-Arbor,-MI-48104","426 Packard St, Ann Arbor, MI 48104",426 Packard St,,Ann Arbor,MI,48104,42.273336,-83.743704,Apartment,1.0,1.0,,,,,,,,,
"2201-Glencoe-Hills-Dr,-Ann-Arbor,-MI-48108","2201 Glencoe Hills Dr, Ann Arbor, MI 48108",2201 Glencoe Hills Dr,,Ann Arbor,MI,48108,42.254032,-83.674911,Apartment,1.0,1.0,800.0,,1974.0,,,,,,
"511-Church-St,-Ann-Arbor,-MI-48104","511 Church St, Ann Arbor, MI 48104",511 Church St,,Ann Arbor,MI,48104,42.276376,-83.734483,Apartment,0.0,1.0,,,,,,,,,
"815-E-Ann-St,-Ann-Arbor,-MI-48104","815 E Ann St, Ann Arbor, MI 48104",815 E Ann St,,Ann Arbor,MI,48104,42.282243,-83.739462,Apartment,0.0,1.0,,,,,,,,,
"432-Hamilton-Pl,-Ann-Arbor,-MI-48104","432 Hamilton Pl, Ann Arbor, MI 48104",432 Hamilton Pl,,Ann Arbor,MI,48104,42.277216,-83.745436,Apartment,0.0,1.0,,,,,,,,,
"502-N-State-St,-Ann-Arbor,-MI-48104","502 N State St, Ann Arbor, MI 48104",502 N State St,,Ann Arbor,MI,48104,42.284969,-83.740913,Apartment,1.0,1.0,,,,{'unitCount': 3},,,,,
"508-Packard-St,-Ann-Arbor,-MI-48104","508 Packard St, Ann Arbor, MI 48104",508 Packard St,,Ann Arbor,MI,48104,42.273033,-83.742927,Single Family,6.0,3.0,,,,,,,,,
"508-Lawrence-St,-Apt-3,-Ann-Arbor,-MI-48104","508 Lawrence St, Apt 3, Ann Arbor, MI 48104",508 Lawrence St,Apt 3,Ann Arbor,MI,48104,42.283868,-83.742379,Condo,6.0,3.0,,,,,,,,,
"403-N-State-St,---3,-Ann-Arbor,-MI-48104","403 N State St, # 3, Ann Arbor, MI 48104",403 N State St,# 3,Ann Arbor,MI,48104,42.284014,-83.74131,Apartment,3.0,2.0,,,,,,,,,
"500-Packard-St,-Apt-2,-Ann-Arbor,-MI-48104","500 Packard St, Apt 2, Ann Arbor, MI 48104",500 Packard St,Apt 2,Ann Arbor,MI,48104,42.273053,-83.74335,Condo,4.0,2.0,,,,,,,,,
"403-N-State-St,---1,-Ann-Arbor,-MI-48104","403 N State St, # 1, Ann Arbor, MI 48104",403 N State St,# 1,Ann Arbor,MI,48104,42.284014,-83.74131,Apartment,4.0,2.0,,,,,,,,,
"510-Lawrence-St,-Apt-4,-Ann-Arbor,-MI-48104","510 Lawrence St, Apt 4, Ann Arbor, MI 48104",510 Lawrence St,Apt 4,Ann Arbor,MI,48104,42.283868,-83.742358,Condo,4.0,2.0,,,,,,,,,
"1116-Packard-St,-Ann-Arbor,-MI-48104","1116 Packard St, Ann Arbor, MI 48104",1116 Packard St,,Ann Arbor,MI,48104,42.266119,-83.735745,Single Family,3.0,1.0,1344.0,3659.0,1920.0,"{'fireplace': True, 'floorCount': 2, 'heating': True, 'heatingType': 'Forced Air', 'roomCount': 6, 'unitCount': 1}","{'2023': {'year': 2023, 'value': 170200}, '2024': {'year': 2024, 'value': 190000}}","{'2022': {'year': 2022, 'total': 4368}, '2023': {'year': 2023, 'total': 6021}}",R4C,"{'names': ['SAYERS RENTALS, LLC'], 'type': 'Organization', 'mailingAddress': {'id': '10318-Sayers-Rd,-Munith,-MI-49259', 'formattedAddress': '10318 Sayers Rd, Munith, MI 49259', 'addressLine1': '10318 Sayers Rd', 'addressLine2': None, 'city': 'Munith', 'state': 'MI', 'stateFips': '26', 'zipCode': '49259'}}",False
"510-Lawrence-St,-Apt-5,-Ann-Arbor,-MI-48104","510 Lawrence St, Apt 5, Ann Arbor, MI 48104",510 Lawrence St,Apt 5,Ann Arbor,MI,48104,42.283868,-83.742358,Condo,5.0,2.0,,,,,,,,,
"109-Glen-Ave,---2,-Ann-Arbor,-MI-48104","109 Glen Ave, # 2, Ann Arbor, MI 48104",109 Glen Ave,# 2,Ann Arbor,MI,48104,42.281865,-83.735925,Condo,6.0,2.0,,,,,,,,,
"121-Glen-Ave,-Apt-2,-Ann-Arbor,-MI-48104","121 Glen Ave, Apt 2, Ann Arbor, MI 48104",121 Glen Ave,Apt 2,Ann Arbor,MI,48104,42.281562,-83.735585,Apartment,6.0,2.0,,,,,,,,,
"841-E-University-Ave,-Ann-Arbor,-MI-48104","841 E University Ave, Ann Arbor, MI 48104",841 E University Ave,,Ann Arbor,MI,48104,42.270706,-83.735422,Single Family,5.0,2.0,2400.0,5924.0,1910.0,"{'fireplace': True, 'floorCount': 2, 'heating': True, 'heatingType': 'Forced Air', 'roomCount': 9, 'unitCount': 1}","{'2023': {'year': 2023, 'value': 287200}, '2024': {'year': 2024, 'value': 333100}}","{'2022': {'year': 2022, 'total': 5997}, '2023': {'year': 2023, 'total': 8267}}",R4C,"{'names': ['EVITT CO LLC'], 'mailingAddress': {'id': '210-Huronview-Blvd,-Ann-Arbor,-MI-48103', 'formattedAddress': '210 Huronview Blvd, Ann Arbor, MI 48103', 'addressLine1': '210 Huronview Blvd', 'addressLine2': None, 'city': 'Ann Arbor', 'state': 'MI', 'stateFips': '26', 'zipCode': '48103'}}",False
"849-E-University-Ave,-Ann-Arbor,-MI-48104","849 E University Ave, Ann Arbor, MI 48104",849 E University Ave,,Ann Arbor,MI,48104,42.270446,-83.735433,Single Family,4.0,2.5,1268.0,5184.0,1925.0,"{'fireplace': True, 'floorCount': 2, 'garage': True, 'garageType': 'Garage', 'heating': True, 'heatingType': 'Forced Air', 'roomCount': 7, 'unitCount': 1}","{'2024': {'year': 2024, 'value': 233300}}","{'2023': {'year': 2023, 'total': 7168}}",R4C,"{'names': ['EVITT CO LLC'], 'mailingAddress': {'id': '210-Huronview-Blvd,-Ann-Arbor,-MI-48103', 'formattedAddress': '210 Huronview Blvd, Ann Arbor, MI 48103', 'addressLine1': '210 Huronview Blvd', 'addressLine2': None, 'city': 'Ann Arbor', 'state': 'MI', 'stateFips': '26', 'zipCode': '48103'}}",False
"510-Lawrence-St,-Apt-2,-Ann-Arbor,-MI-48104","510 Lawrence St, Apt 2, Ann Arbor, MI 48104",510 Lawrence St,Apt 2,Ann Arbor,MI,48104,42.283868,-83.742358,Apartment,2.0,1.0,,,,,,,,,
"418-Lawrence-St,-Apt-2,-Ann-Arbor,-MI-48104","418 Lawrence St, Apt 2, Ann Arbor, MI 48104",418 Lawrence St,Apt 2,Ann Arbor,MI,48104,42.283885,-83.743475,Apartment,4.0,2.0,,,,,,,,,
"309-Packard-St,-Ann-Arbor,-MI-48104","309 Packard St, Ann Arbor, MI 48104",309 Packard St,,Ann Arbor,MI,48104,42.275357,-83.745957,Single Family,6.0,2.0,,,,,,,,,
"414-Lawrence-St,-Apt-3,-Ann-Arbor,-MI-48104","414 Lawrence St, Apt 3, Ann Arbor, MI 48104",414 Lawrence St,Apt 3,Ann Arbor,MI,48104,42.283885,-83.743525,Apartment,2.0,1.0,,,,,,,,,
"549-Packard-St,---1,-Ann-Arbor,-MI-48104","549 Packard St, # 1, Ann Arbor, MI 48104",549 Packard St,# 1,Ann Arbor,MI,48104,42.272195,-83.741619,Multi-Family,6.0,2.0,,,,,,,,,
"603-Catherine-St,-Apt-2,-Ann-Arbor,-MI-48104","603 Catherine St, Apt 2, Ann Arbor, MI 48104",603 Catherine St,Apt 2,Ann Arbor,MI,48104,42.2831,-83.741781,Condo,4.0,2.0,,,,,,,,,
"3127-Lake-Haven-Dr,-Ann-Arbor,-MI-48105","3127 Lake Haven Dr, Ann Arbor, MI 48105",3127 Lake Haven Dr,,Ann Arbor,MI,48105,42.285922,-83.697088,Condo,3.0,2.5,1516.0,,1976.0,"{'architectureType': 'Ranch', 'cooling': True, 'coolingType': 'Commercial', 'garage': True, 'garageType': 'Garage', 'heating': True, 'heatingType': 'Forced Air'}","{'2023': {'year': 2023, 'value': 129500}, '2024': {'year': 2024, 'value': 148700}}","{'2019': {'year': 2019, 'total': 4289}, '2023': {'year': 2023, 'total': 5088}}",UNKNOWN,"{'names': ['Redondo Juan', 'Chang Chiwei'], 'type': 'Individual', 'mailingAddress': {'id': '3127-Lake-Haven-Dr,-Ann-Arbor,-MI-48105', 'formattedAddress': '3127 Lake Haven Dr, Ann Arbor, MI 48105', 'addressLine1': '3127 Lake Haven Dr', 'addressLine2': None, 'city': 'Ann Arbor', 'state': 'MI', 'stateFips': '26', 'zipCode': '48105'}}",True
"508-Lawrence-St,-Apt-1,-Ann-Arbor,-MI-48104","508 Lawrence St, Apt 1, Ann Arbor, MI 48104",508 Lawrence St,Apt 1,Ann Arbor,MI,48104,42.283868,-83.742379,Condo,3.0,1.0,,,,,,,,,
"908-Oakland-Ave,-Apt-302,-Ann-Arbor,-MI-48104","908 Oakland Ave, Apt 302, Ann Arbor, MI 48104",908 Oakland Ave,Apt 302,Ann Arbor,MI,48104,42.270564,-83.738937,Apartment,1.0,1.0,,,,,,,,,
"328-Catherine-St,-Ann-Arbor,-MI-48104","328 Catherine St, Ann Arbor, MI 48104",328 Catherine St,,Ann Arbor,MI,48104,42.282944,-83.744565,Single Family,6.0,2.0,2476.0,4617.0,1901.0,"{'fireplace': True, 'floorCount': 2, 'heating': True, 'heatingType': 'Forced Air', 'roomCount': 10, 'unitCount': 1}","{'2023': {'year': 2023, 'value': 254400}, '2024': {'year': 2024, 'value': 290200}}","{'2022': {'year': 2022, 'total': 6133}, '2023': {'year': 2023, 'total': 8454}}",O,"{'names': ['BLACKHAWK ASSOCIATES LC'], 'mailingAddress': {'id': '8350-W-Liberty-Rd,-Ann-Arbor,-MI-48103', 'formattedAddress': '8350 W Liberty Rd, Ann Arbor, MI 48103', 'addressLine1': '8350 W Liberty Rd', 'addressLine2': None, 'city': 'Ann Arbor', 'state': 'MI', 'stateFips': '26', 'zipCode': '48103'}}",False
"537-Elizabeth-St,-Apt-3,-Ann-Arbor,-MI-48104","537 Elizabeth St, Apt 3, Ann Arbor, MI 48104",537 Elizabeth St,Apt 3,Ann Arbor,MI,48104,42.285959,-83.741907,Apartment,1.0,,,,,,,,,,
"507-E-Kingsley-St,-Ann-Arbor,-MI-48104","507 E Kingsley St, Ann Arbor, MI 48104",507 E Kingsley St,,Ann Arbor,MI,48104,42.284898,-83.742124,Single Family,5.0,1.5,1494.0,4617.0,1910.0,"{'fireplace': True, 'floorCount': 2, 'foundationType': 'Concrete', 'heating': True, 'heatingType': 'Forced Air', 'roomCount': 7, 'unitCount': 1}","{'2023': {'year': 2023, 'value': 209800}, '2024': {'year': 2024, 'value': 233700}}","{'2022': {'year': 2022, 'total': 10543}, '2023': {'year': 2023, 'total': 14124}}",R4C,"{'names': ['Ivo Panyovski', 'Daniela Todorova'], 'type': 'Individual', 'mailingAddress': {'id': '3610-Golfside-Rd,-Ypsilanti,-MI-48197', 'formattedAddress': '3610 Golfside Rd, Ypsilanti, MI 48197', 'addressLine1': '3610 Golfside Rd', 'addressLine2': None, 'city': 'Ypsilanti', 'state': 'MI', 'stateFips': '26', 'zipCode': '48197'}}",False
"915-Oakland-Ave,-Apt-3A,-Ann-Arbor,-MI-48104","915 Oakland Ave, Apt 3A, Ann Arbor, MI 48104",915 Oakland Ave,Apt 3A,Ann Arbor,MI,48104,42.270825,-83.73812,Apartment,3.0,1.0,,,,,,,,,
"521-N-Division-St,-Apt-3,-Ann-Arbor,-MI-48104","521 N Division St, Apt 3, Ann Arbor, MI 48104",521 N Division St,Apt 3,Ann Arbor,MI,48104,42.285455,-83.743631,Condo,3.0,1.0,,,,,,,,,
"933-Dewey-Ave,-Ann-Arbor,-MI-48104","933 Dewey Ave, Ann Arbor, MI 48104",933 Dewey Ave,,Ann Arbor,MI,48104,42.266164,-83.736669,Apartment,1.0,1.0,,,,,,,,,
"314-E-William-St,-Ann-Arbor,-MI-48104","314 E William St, Ann Arbor, MI 48104",314 E William St,,Ann Arbor,MI,48104,42.277634,-83.745476,Condo,6.0,3.0,2071.0,,,,,,,,
"802-Arch-St,-Ann-Arbor,-MI-48104","802 Arch St, Ann Arbor, MI 48104",802 Arch St,,Ann Arbor,MI,48104,42.269411,-83.738719,Single Family,3.0,1.0,1300.0,4356.0,1900.0,,,,,,
"500-Packard-St,-Apt-3,-Ann-Arbor,-MI-48104","500 Packard St, Apt 3, Ann Arbor, MI 48104",500 Packard St,Apt 3,Ann Arbor,MI,48104,42.273053,-83.74335,Condo,4.0,2.0,,,,,,,,,
"1029-Pontiac-Trl,-Ann-Arbor,-MI-48105","1029 Pontiac Trl, Ann Arbor, MI 48105",1029 Pontiac Trl,,Ann Arbor,MI,48105,42.290762,-83.739889,Single Family,5.0,2.0,1728.0,18034.0,1901.0,"{'cooling': True, 'coolingType': 'Commercial', 'fireplace': True, 'floorCount': 2, 'foundationType': 'Brick', 'heating': True, 'heatingType': 'Forced Air', 'roomCount': 7, 'unitCount': 1}","{'2024': {'year': 2024, 'value': 226900}}","{'2023': {'year': 2023, 'total': 12818}}",R4C,"{'names': ['1029 PONTIAC TRAIL LLC', 'ZAKI ALAWI'], 'type': 'Organization', 'mailingAddress': {'id': '414-Huntington-Pl,-Ann-Arbor,-MI-48104', 'formattedAddress': '414 Huntington Pl, Ann Arbor, MI 48104', 'addressLine1': '414 Huntington Pl', 'addressLine2': None, 'city': 'Ann Arbor', 'state': 'MI', 'stateFips': '26', 'zipCode': '48104'}}",False
"812-Brown-St,-Ann-Arbor,-MI-48104","812 Brown St, Ann Arbor, MI 48104",812 Brown St,,Ann Arbor,MI,48104,42.271509,-83.748732,Apartment,6.0,2.0,,,,,,,,,
"331-S-Division-St,-Ann-Arbor,-MI-48104","331 S Division St, Ann Arbor, MI 48104",331 S Division St,,Ann Arbor,MI,48104,42.278374,-83.743799,Condo,2.0,1.0,,,,,,,,,
"908-Oakland-Ave,-Apt-201,-Ann-Arbor,-MI-48104","908 Oakland Ave, Apt 201, Ann Arbor, MI 48104",908 Oakland Ave,Apt 201,Ann Arbor,MI,48104,42.270564,-83.738937,Apartment,1.0,1.0,,,,,,,,,
"514-E-Ann-St,-Apt-2,-Ann-Arbor,-MI-48104","514 E Ann St, Apt 2, Ann Arbor, MI 48104",514 E Ann St,Apt 2,Ann Arbor,MI,48104,42.281969,-83.742254,Condo,6.0,3.0,,,,,,,,,
"403-N-State-St,---4,-Ann-Arbor,-MI-48104","403 N State St, # 4, Ann Arbor, MI 48104",403 N State St,# 4,Ann Arbor,MI,48104,42.284014,-83.74131,Apartment,5.0,2.0,,,,,,,,,
"310-N-1st-St,-Apt-2,-Ann-Arbor,-MI-48103","310 N 1st St, Apt 2, Ann Arbor, MI 48103",310 N 1st St,Apt 2,Ann Arbor,MI,48103,42.283704,-83.750612,Condo,2.0,1.0,,,,,,,,,
"911-Oakland-Ave,-Apt-2,-Ann-Arbor,-MI-48104","911 Oakland Ave, Apt 2, Ann Arbor, MI 48104",911 Oakland Ave,Apt 2,Ann Arbor,MI,48104,42.270761,-83.738258,Apartment,1.0,1.0,,,,,,,,,
"310-N-1st-St,-Apt-3,-Ann-Arbor,-MI-48103","310 N 1st St, Apt 3, Ann Arbor, MI 48103",310 N 1st St,Apt 3,Ann Arbor,MI,48103,42.283704,-83.750612,Condo,3.0,1.0,,,,,,,,,
"314-E-William-St,-Apt-2,-Ann-Arbor,-MI-48104","314 E William St, Apt 2, Ann Arbor, MI 48104",314 E William St,Apt 2,Ann Arbor,MI,48104,42.277862,-83.745706,Condo,2.0,1.0,,,,,,,,,
"414-Lawrence-St,-Apt-1,-Ann-Arbor,-MI-48104","414 Lawrence St, Apt 1, Ann Arbor, MI 48104",414 Lawrence St,Apt 1,Ann Arbor,MI,48104,42.283885,-83.743525,Apartment,2.0,1.0,,,,,,,,,
"514-E-Kingsley-St,-Apt-2,-Ann-Arbor,-MI-48104","514 E Kingsley St, Apt 2, Ann Arbor, MI 48104",514 E Kingsley St,Apt 2,Ann Arbor,MI,48104,42.284535,-83.74181,Single Family,7.0,3.0,2072.0,7754.0,1901.0,,,,,,
"510-Benjamin-St,-Ann-Arbor,-MI-48104","510 Benjamin St, Ann Arbor, MI 48104",510 Benjamin St,,Ann Arbor,MI,48104,42.270651,-83.742563,Condo,6.0,2.0,1502.0,4356.0,1910.0,"{'fireplace': True, 'heating': True, 'heatingType': 'Forced Air', 'roomCount': 9, 'unitCount': 1}","{'2019': {'year': 2019, 'value': 182200, 'land': 182200}}","{'2018': {'year': 2018, 'total': 10358}}",R4C,"{'names': ['510 BENJAMIN, LLC'], 'mailingAddress': {'id': '414-Huntington-Pl,-Ann-Arbor,-MI-48104', 'addressLine1': '414 Huntington Pl', 'addressLine2': None, 'city': 'Ann Arbor', 'state': 'MI', 'stateFips': '26', 'zipCode': '48104'}}",False
"507-Elm-St,-Ann-Arbor,-MI-48104","507 Elm St, Ann Arbor, MI 48104",507 Elm St,,Ann Arbor,MI,48104,42.276661,-83.730128,Single Family,3.0,3.0,2158.0,7318.0,1920.0,"{'fireplace': True, 'floorCount': 2, 'foundationType': 'Brick', 'garage': True, 'garageType': 'Garage', 'heating': True, 'heatingType': 'Forced Air', 'roomCount': 7, 'unitCount': 1}","{'2022': {'year': 2022, 'value': 290300}, '2023': {'year': 2023, 'value': 308300}, '2024': {'year': 2024, 'value': 323600}}","{'2022': {'year': 2022, 'total': 4757}, '2023': {'year': 2023, 'total': 6557}}",R4C,"{'names': ['Gerard J Matuszak', 'Rose M Matuszak'], 'type': 'Individual', 'mailingAddress': {'id': '4820-Vorhies-Rd,-Ann-Arbor,-MI-48105', 'formattedAddress': '4820 Vorhies Rd, Ann Arbor, MI 48105', 'addressLine1': '4820 Vorhies Rd', 'addressLine2': None, 'city': 'Ann Arbor', 'state': 'MI', 'stateFips': '26', 'zipCode': '48105'}}",False
"722-E-Kingsley-St,-Ann-Arbor,-MI-48104","722 E Kingsley St, Ann Arbor, MI 48104",722 E Kingsley St,,Ann Arbor,MI,48104,42.284649,-83.740044,Single Family,6.0,2.0,1518.0,,,,,,,,
"1105-Church-St,-Ann-Arbor,-MI-48104","1105 Church St, Ann Arbor, MI 48104",1105 Church St,,Ann Arbor,MI,48104,42.268754,-83.734108,Single Family,5.0,3.0,1638.0,3223.0,1910.0,"{'cooling': True, 'coolingType': 'Commercial', 'fireplace': True, 'floorCount': 2, 'foundationType': 'Concrete', 'heating': True, 'heatingType': 'Forced Air', 'roomCount': 8, 'unitCount': 1}","{'2023': {'year': 2023, 'value': 205000}, '2024': {'year': 2024, 'value': 233600}}","{'2022': {'year': 2022, 'total': 6549}, '2023': {'year': 2023, 'total': 9027}}",R4C,"{'names': ['1105 CHURCH LLC'], 'type': 'Organization', 'mailingAddress': {'id': '1207-Packard-St,---N-2,-Ann-Arbor,-MI-48104', 'formattedAddress': '1207 Packard St, # N-2, Ann Arbor, MI 48104', 'addressLine1': '1207 Packard St', 'addressLine2': '# N-2', 'city': 'Ann Arbor', 'state': 'MI', 'stateFips': '26', 'zipCode': '48104'}}",False
"814-Sybil-St,-Ann-Arbor,-MI-48104","814 Sybil St, Ann Arbor, MI 48104",814 Sybil St,,Ann Arbor,MI,48104,42.271068,-83.743326,Single Family,6.0,2.0,1621.0,2614.0,1920.0,"{'exteriorType': 'Ribbed Aluminum', 'fireplace': True, 'floorCount': 2, 'foundationType': 'Concrete', 'garage': True, 'garageType': 'Attached', 'heating': True, 'heatingType': 'Forced Air', 'roomCount': 8, 'unitCount': 1}","{'2019': {'year': 2019, 'value': 179400, 'land': 179400}}","{'2018': {'year': 2018, 'total': 6670}}",R4C,"{'names': ['CHARLES C J & JUDY T HUANG'], 'mailingAddress': {'id': '361-Somerset-Rd,-Saginaw,-MI-48638', 'addressLine1': '361 Somerset Rd', 'addressLine2': None, 'city': 'Saginaw', 'state': 'MI', 'stateFips': '26', 'zipCode': '48638'}}",True
"809-Sybil-St,-Ann-Arbor,-MI-48104","809 Sybil St, Ann Arbor, MI 48104",809 Sybil St,,Ann Arbor,MI,48104,42.27126,-83.742931,Single Family,4.0,1.0,1050.0,2178.0,1922.0,"{'fireplace': True, 'foundationType': 'Concrete', 'heating': True, 'heatingType': 'Forced Air', 'roomCount': 7, 'unitCount': 1, 'floorCount': 2}","{'2019': {'year': 2019, 'value': 145900, 'land': 145900}, '2024': {'year': 2024, 'value': 183200}}","{'2018': {'year': 2018, 'total': 4869}, '2023': {'year': 2023, 'total': 6022}}",R4C,"{'names': ['PETER G BELANGER', 'PETER G BELANGER AND HELEN R TAMER'], 'type': 'Organization', 'mailingAddress': {'id': '318-E-Jefferson-St,-APT-6,-Ann-Arbor,-MI-48104', 'formattedAddress': '318 E Jefferson St, APT 6, Ann Arbor, MI 48104', 'addressLine1': '318 E Jefferson St', 'addressLine2': 'APT 6', 'city': 'Ann Arbor', 'state': 'MI', 'stateFips': '26', 'zipCode': '48104'}}",False
"311-E-Liberty-St,-Ann-Arbor,-MI-48104","311 E Liberty St, Ann Arbor, MI 48104",311 E Liberty St,,Ann Arbor,MI,48104,42.279597,-83.745615,Condo,2.0,1.0,,,,,,,,,
"115-Beakes-St,-Ann-Arbor,-MI-48104","115 Beakes St, Ann Arbor, MI 48104",115 Beakes St,,Ann Arbor,MI,48104,42.285225,-83.747809,Single Family,5.0,1.0,1552.0,2222.0,1910.0,"{'cooling': True, 'coolingType': 'Commercial', 'exteriorType': 'Ribbed Aluminum', 'fireplace': True, 'floorCount': 2, 'foundationType': 'Brick', 'heating': True, 'heatingType': 'Forced Air', 'roomCount': 8, 'unitCount': 1}","{'2023': {'year': 2023, 'value': 139900}, '2024': {'year': 2024, 'value': 178900}}","{'2022': {'year': 2022, 'total': 7543}, '2023': {'year': 2023, 'total': 9418}}",R4C,"{'names': ['115 BEAKES STREET LLC'], 'type': 'Organization', 'mailingAddress': {'id': '414-Huntington-Pl,-Ann-Arbor,-MI-48104', 'formattedAddress': '414 Huntington Pl, Ann Arbor, MI 48104', 'addressLine1': '414 Huntington Pl', 'addressLine2': None, 'city': 'Ann Arbor', 'state': 'MI', 'stateFips': '26', 'zipCode': '48104'}}",False
"1213-Prospect-St,-Ann-Arbor,-MI-48104","1213 Prospect St, Ann Arbor, MI 48104",1213 Prospect St,,Ann Arbor,MI,48104,42.267789,-83.733849,Single Family,6.0,3.0,1068.0,1960.0,1915.0,"{'cooling': True, 'coolingType': 'Commercial', 'fireplace': True, 'floorCount': 2, 'foundationType': 'Concrete', 'heating': True, 'heatingType': 'Forced Air', 'roomCount': 7, 'unitCount': 1}","{'2023': {'year': 2023, 'value': 153400}, '2024': {'year': 2024, 'value': 171900}}","{'2022': {'year': 2022, 'total': 8686}, '2023': {'year': 2023, 'total': 10327}}",R4C,"{'names': ['1213 PROSPECT HOUSE LLC'], 'type': 'Organization', 'mailingAddress': {'id': 'PO-BOX-8383,-Ann-Arbor,-MI-48107', 'formattedAddress': 'PO BOX 8383, Ann Arbor, MI 48107', 'addressLine1': 'PO BOX 8383', 'addressLine2': None, 'city': 'Ann Arbor', 'state': 'MI', 'stateFips': '26', 'zipCode': '48107'}}",False
"610-E-Ann-St,-Ann-Arbor,-MI-48104","610 E Ann St, Ann Arbor, MI 48104",610 E Ann St,,Ann Arbor,MI,48104,42.282115,-83.741522,Single Family,6.0,2.0,2080.0,,,,,,,,
"215-Buena-Vista-Ave,-Ann-Arbor,-MI-48103","215 Buena Vista Ave, Ann Arbor, MI 48103",215 Buena Vista Ave,,Ann Arbor,MI,48103,42.280074,-83.761845,Single Family,3.0,1.0,1144.0,4356.0,1925.0,"{'cooling': True, 'coolingType': 'Commercial', 'fireplace': True, 'floorCount': 2, 'foundationType': 'Concrete', 'garage': True, 'garageType': 'Garage', 'heating': True, 'heatingType': 'Forced Air', 'roomCount': 6, 'unitCount': 1}","{'2023': {'year': 2023, 'value': 220900}, '2024': {'year': 2024, 'value': 224900}}","{'2022': {'year': 2022, 'total': 8090}, '2023': {'year': 2023, 'total': 11152}}",R1D,"{'names': ['NA'], 'type': 'Organization'}",False
"1111-S-State-St,-Ann-Arbor,-MI-48104","1111 S State St, Ann Arbor, MI 48104",1111 S State St,,Ann Arbor,MI,48104,42.268265,-83.740158,Apartment,3.0,1.0,,,1965.0,,,,,,
"521-N-Division-St,-Apt-1,-Ann-Arbor,-MI-48104","521 N Division St, Apt 1, Ann Arbor, MI 48104",521 N Division St,Apt 1,Ann Arbor,MI,48104,42.285455,-83.743631,Condo,3.0,2.0,,,,,,,,,
"912-Oakland-Ave,-Ann-Arbor,-MI-48104","912 Oakland Ave, Ann Arbor, MI 48104",912 Oakland Ave,,Ann Arbor,MI,48104,42.270462,-83.738828,Apartment,2.0,1.0,,,,,,,,,
"736-S-Forest-Ave,-Apt-4,-Ann-Arbor,-MI-48104","736 S Forest Ave, Apt 4, Ann Arbor, MI 48104",736 S Forest Ave,Apt 4,Ann Arbor,MI,48104,42.273167,-83.733106,Apartment,2.0,1.0,,,,,,,,,
"807-S-Main-St,-Ann-Arbor,-MI-48104","807 S Main St, Ann Arbor, MI 48104",807 S Main St,,Ann Arbor,MI,48104,42.271345,-83.749657,Single Family,3.0,1.0,1155.0,6273.0,1901.0,"{'cooling': True, 'coolingType': 'Commercial', 'fireplace': True, 'floorCount': 2, 'heating': True, 'heatingType': 'Forced Air', 'roomCount': 6, 'unitCount': 1}","{'2024': {'year': 2024, 'value': 197000}}","{'2023': {'year': 2023, 'total': 5519}}",R4C,"{'names': ['SDI HOLDING CO LLC'], 'mailingAddress': {'id': '341-E-Huron-St,-Ann-Arbor,-MI-48104', 'formattedAddress': '341 E Huron St, Ann Arbor, MI 48104', 'addressLine1': '341 E Huron St', 'addressLine2': None, 'city': 'Ann Arbor', 'state': 'MI', 'stateFips': '26', 'zipCode': '48104'}}",False
"225-Sunset-Rd,-Ann-Arbor,-MI-48103","225 Sunset Rd, Ann Arbor, MI 48103",225 Sunset Rd,,Ann Arbor,MI,48103,42.290755,-83.748453,Townhouse,4.0,2.5,1860.0,,2020.0,,,,,,
"403-S-Division-St,-Ann-Arbor,-MI-48104","403 S Division St, Ann Arbor, MI 48104",403 S Division St,,Ann Arbor,MI,48104,42.277615,-83.743957,Single Family,3.0,1.5,,,,,,,,,
"124-Adams-Ave,-Ann-Arbor,-MI-48104","124 Adams Ave, Ann Arbor, MI 48104",124 Adams Ave,,Ann Arbor,MI,48104,42.272236,-83.747975,Single Family,4.0,1.0,1200.0,,,,,,,,
"1114-Prospect-St,-Apt-2,-Ann-Arbor,-MI-48104","1114 Prospect St, Apt 2, Ann Arbor, MI 48104",1114 Prospect St,Apt 2,Ann Arbor,MI,48104,42.26861,-83.735511,Apartment,6.0,2.0,1800.0,,,,,,,,
"916-S-Main-St,-Ann-Arbor,-MI-48104","916 S Main St, Ann Arbor, MI 48104",916 S Main St,,Ann Arbor,MI,48104,42.2697,-83.750483,Single Family,4.0,1.0,1553.0,8712.0,1910.0,"{'cooling': True, 'coolingType': 'Commercial', 'fireplace': True, 'floorCount': 2, 'foundationType': 'Concrete', 'garage': True, 'garageType': 'Garage', 'heating': True, 'heatingType': 'Forced Air', 'roomCount': 6, 'unitCount': 1}","{'2023': {'year': 2023, 'value': 249900}, '2024': {'year': 2024, 'value': 257100}}","{'2022': {'year': 2022, 'total': 7653}, '2023': {'year': 2023, 'total': 10550}}",R4C,"{'names': ['916 S MAIN ST LLC'], 'type': 'Organization', 'mailingAddress': {'id': '5025-RED-FOX-RUN,-Ann-Arbor,-MI-48105', 'formattedAddress': '5025 RED FOX RUN, Ann Arbor, MI 48105', 'addressLine1': '5025 RED FOX RUN', 'addressLine2': None, 'city': 'Ann Arbor', 'state': 'MI', 'stateFips': '26', 'zipCode': '48105'}}",False
"530-S-Division-St,-Ann-Arbor,-MI-48104","530 S Division St, Ann Arbor, MI 48104",530 S Division St,,Ann Arbor,MI,48104,42.275093,-83.744599,Single Family,6.0,2.0,,,,,,,,,
"822-Dewey-Ave,-Ann-Arbor,-MI-48104","822 Dewey Ave, Ann Arbor, MI 48104",822 Dewey Ave,,Ann Arbor,MI,48104,42.2655,-83.738184,Single Family,5.0,2.0,1238.0,4487.0,1915.0,"{'cooling': True, 'coolingType': 'Commercial', 'fireplace': True, 'floorCount': 2, 'foundationType': 'Concrete', 'garage': True, 'garageType': 'Garage', 'heating': True, 'heatingType': 'Forced Air', 'roomCount': 8, 'unitCount': 1}","{'2023': {'year': 2023, 'value': 180100}, '2024': {'year': 2024, 'value': 200000}}","{'2022': {'year': 2022, 'total': 4666}, '2023': {'year': 2023, 'total': 6432}}",R4C,"{'names': ['Hristos Papanastasopoulos', 'Eleni Papanastasopoulos'], 'type': 'Individual', 'mailingAddress': {'id': '2944-Mystic-Dr,-Ann-Arbor,-MI-48103', 'formattedAddress': '2944 Mystic Dr, Ann Arbor, MI 48103', 'addressLine1': '2944 Mystic Dr', 'addressLine2': None, 'city': 'Ann Arbor', 'state': 'MI', 'stateFips': '26', 'zipCode': '48103'}}",False
"916-Catherine-St,-Ann-Arbor,-MI-48104","916 Catherine St, Ann Arbor, MI 48104",916 Catherine St,,Ann Arbor,MI,48104,42.282898,-83.737792,Single Family,3.0,1.0,1176.0,5576.0,1912.0,"{'fireplace': True, 'floorCount': 2, 'foundationType': 'Concrete', 'heating': True, 'heatingType': 'Forced Air', 'roomCount': 6, 'unitCount': 1}","{'2022': {'year': 2022, 'value': 190800}, '2023': {'year': 2023, 'value': 198500}, '2024': {'year': 2024, 'value': 225800}}","{'2022': {'year': 2022, 'total': 4134}, '2023': {'year': 2023, 'total': 5698}}",R4C,"{'names': ['Jane H Higgins'], 'type': 'Individual', 'mailingAddress': {'id': '337-E-Huron-St,-Ann-Arbor,-MI-48104', 'formattedAddress': '337 E Huron St, Ann Arbor, MI 48104', 'addressLine1': '337 E Huron St', 'addressLine2': None, 'city': 'Ann Arbor', 'state': 'MI', 'stateFips': '26', 'zipCode': '48104'}}",False
"822-Starwick-Dr,-Ann-Arbor,-MI-48105","822 Starwick Dr, Ann Arbor, MI 48105",822 Starwick Dr,,Ann Arbor,MI,48105,42.300846,-83.734528,Single Family,3.0,1.0,877.0,6708.0,1952.0,"{'architectureType': 'Ranch', 'cooling': True, 'coolingType': 'Commercial', 'fireplace': True, 'foundationType': 'Concrete', 'garage': True, 'garageType': 'Garage', 'heating': True, 'heatingType': 'Forced Air', 'roomCount': 5, 'unitCount': 1}","{'2024': {'year': 2024, 'value': 128100}}","{'2023': {'year': 2023, 'total': 4555}}",R1D,"{'names': ['Michael Brady', 'S Brady'], 'type': 'Individual', 'mailingAddress': {'id': '56-Elmhurst-Dr-SE,-Grand-Rapids,-MI-49506', 'formattedAddress': '56 Elmhurst Dr SE, Grand Rapids, MI 49506', 'addressLine1': '56 Elmhurst Dr SE', 'addressLine2': None, 'city': 'Grand Rapids', 'state': 'MI', 'stateFips': '26', 'zipCode': '49506'}}",False
"732-S-Division-St,-Ann-Arbor,-MI-48104","732 S Division St, Ann Arbor, MI 48104",732 S Division St,,Ann Arbor,MI,48104,42.272085,-83.744712,Single Family,6.0,2.5,1424.0,3485.0,1913.0,"{'fireplace': True, 'heating': True, 'heatingType': 'Forced Air', 'roomCount': 8, 'unitCount': 1}","{'2019': {'year': 2019, 'value': 202900, 'land': 202900}}","{'2018': {'year': 2018, 'total': 8638}}",R4C,"{'names': ['TEVINV732D, LLC'], 'mailingAddress': {'id': '824-Packard-St,-Ann-Arbor,-MI-48104', 'addressLine1': '824 Packard St', 'addressLine2': None, 'city': 'Ann Arbor', 'state': 'MI', 'stateFips': '26', 'zipCode': '48104'}}",False
"707-S-Division-St,-Apt-1DOWN,-Ann-Arbor,-MI-48104","707 S Division St, Apt 1DOWN, Ann Arbor, MI 48104",707 S Division St,Apt 1DOWN,Ann Arbor,MI,48104,42.272829,-83.744088,Single Family,2.0,1.0,,,,,,,,,
"537-Elizabeth-St,-Ann-Arbor,-MI-48104","537 Elizabeth St, Ann Arbor, MI 48104",537 Elizabeth St,,Ann Arbor,MI,48104,42.285927,-83.742044,Apartment,3.0,1.0,550.0,,1901.0,,,,,,
"1122-S-Forest-Ave,-Ann-Arbor,-MI-48104","1122 S Forest Ave, Ann Arbor, MI 48104",1122 S Forest Ave,,Ann Arbor,MI,48104,42.267983,-83.733676,Single Family,6.0,2.0,1816.0,6839.0,1915.0,"{'fireplace': True, 'floorCount': 2, 'foundationType': 'Concrete', 'heating': True, 'heatingType': 'Forced Air', 'roomCount': 8, 'unitCount': 1}","{'2023': {'year': 2023, 'value': 213600}}","{'2022': {'year': 2022, 'total': 5684}}",R4C,"{'names': ['1122 SOUTH FOREST LLC'], 'mailingAddress': {'id': '1207-Packard-St,---N-2,-Ann-Arbor,-MI-48104', 'formattedAddress': '1207 Packard St, # N-2, Ann Arbor, MI 48104', 'addressLine1': '1207 Packard St', 'addressLine2': '# N-2', 'city': 'Ann Arbor', 'state': 'MI', 'stateFips': '26', 'zipCode': '48104'}}",False
"737-Packard-St,-Ann-Arbor,-MI-48104","737 Packard St, Ann Arbor, MI 48104",737 Packard St,,Ann Arbor,MI,48104,42.270068,-83.739365,Single Family,6.0,2.0,1646.0,6708.0,1910.0,"{'cooling': True, 'coolingType': 'Commercial', 'fireplace': True, 'floorCount': 2, 'heating': True, 'heatingType': 'Forced Air', 'roomCount': 7, 'unitCount': 1}","{'2024': {'year': 2024, 'value': 236600}}","{'2023': {'year': 2023, 'total': 7323}}",C1A/R,"{'names': ['KEN & NORIKO 2 LLC'], 'mailingAddress': {'id': '777-E-Eisenhower-Pkwy,-STE-850,-Ann-Arbor,-MI-48108', 'formattedAddress': '777 E Eisenhower Pkwy, STE 850, Ann Arbor, MI 48108', 'addressLine1': '777 E Eisenhower Pkwy', 'addressLine2': 'STE 850', 'city': 'Ann Arbor', 'state': 'MI', 'stateFips': '26', 'zipCode': '48108'}}",False
"209-N-Thayer-St,-Ann-Arbor,-MI-48104","209 N Thayer St, Ann Arbor, MI 48104",209 N Thayer St,,Ann Arbor,MI,48104,42.282536,-83.740113,Single Family,3.0,2.0,1866.0,3267.0,1901.0,"{'fireplace': True, 'floorCount': 2, 'foundationType': 'Concrete', 'garage': True, 'garageType': 'Garage', 'heating': True, 'heatingType': 'Forced Air', 'roomCount': 6, 'unitCount': 1}","{'2023': {'year': 2023, 'value': 243900}, '2024': {'year': 2024, 'value': 299500}}","{'2022': {'year': 2022, 'total': 5922}, '2023': {'year': 2023, 'total': 8163}}",R4C,"{'names': ['Richard Haynes', 'Jan M Haynes', 'OXFORD PROPERTY MANAGEMENT'], 'type': 'Individual', 'mailingAddress': {'id': '777-E-Eisenhower-Pkwy,-STE-850,-Ann-Arbor,-MI-48108', 'formattedAddress': '777 E Eisenhower Pkwy, STE 850, Ann Arbor, MI 48108', 'addressLine1': '777 E Eisenhower Pkwy', 'addressLine2': 'STE 850', 'city': 'Ann Arbor', 'state': 'MI', 'stateFips': '26', 'zipCode': '48108'}}",False
"2736-Page-Ave,-Ann-Arbor,-MI-48104","2736 Page Ave, Ann Arbor, MI 48104",2736 Page Ave,,Ann Arbor,MI,48104,42.248835,-83.726032,Single Family,3.0,2.5,1318.0,,1966.0,,,,,,
"1205-Island-Dr,-Apt-101,-Ann-Arbor,-MI-48105","1205 Island Dr, Apt 101, Ann Arbor, MI 48105",1205 Island Dr,Apt 101,Ann Arbor,MI,48105,42.290191,-83.730889,Condo,2.0,1.0,871.0,,1964.0,"{'architectureType': 'Condo / Apartment', 'heating': True, 'heatingType': 'Hot Water', 'unitCount': 1}","{'2022': {'year': 2022, 'value': 99700}, '2023': {'year': 2023, 'value': 112800}, '2024': {'year': 2024, 'value': 118700}}","{'2022': {'year': 2022, 'total': 3160}, '2023': {'year': 2023, 'total': 4355}}",R4A,"{'names': ['ACTON FAMILY L L C'], 'type': 'Organization', 'mailingAddress': {'id': '5572-Raven-Pkwy,-Monroe,-MI-48161', 'formattedAddress': '5572 Raven Pkwy, Monroe, MI 48161', 'addressLine1': '5572 Raven Pkwy', 'addressLine2': None, 'city': 'Monroe', 'state': 'MI', 'stateFips': '26', 'zipCode': '48161'}}",False
"741-Packard-St,-Ann-Arbor,-MI-48104","741 Packard St, Ann Arbor, MI 48104",741 Packard St,,Ann Arbor,MI,48104,42.269983,-83.739269,Single Family,6.0,1.5,1510.0,6882.0,1910.0,"{'fireplace': True, 'floorCount': 2, 'garage': True, 'garageType': 'Garage', 'heating': True, 'heatingType': 'Forced Air', 'roomCount': 8, 'unitCount': 1}","{'2023': {'year': 2023, 'value': 198500}, '2024': {'year': 2024, 'value': 219500}}","{'2022': {'year': 2022, 'total': 4982}, '2023': {'year': 2023, 'total': 6868}}",C1A/R,"{'names': ['KEN & NORIKO 3 LLC'], 'mailingAddress': {'id': '777-E-Eisenhower-Pkwy,-STE-850,-Ann-Arbor,-MI-48108', 'formattedAddress': '777 E Eisenhower Pkwy, STE 850, Ann Arbor, MI 48108', 'addressLine1': '777 E Eisenhower Pkwy', 'addressLine2': 'STE 850', 'city': 'Ann Arbor', 'state': 'MI', 'stateFips': '26', 'zipCode': '48108'}}",False
"3112-Cedarbrook-Rd,-Ann-Arbor,-MI-48105","3112 Cedarbrook Rd, Ann Arbor, MI 48105",3112 Cedarbrook Rd,,Ann Arbor,MI,48105,42.315773,-83.699473,Single Family,4.0,2.0,2663.0,7405.0,1989.0,"{'exteriorType': 'Brick', 'fireplace': True, 'floorCount': 2, 'foundationType': 'Concrete', 'garage': True, 'heating': True, 'roomCount': 9, 'unitCount': 1}",,,,,
"337-3rd-St,-Ann-Arbor,-MI-48103","337 3rd St, Ann Arbor, MI 48103",337 3rd St,,Ann Arbor,MI,48103,42.278566,-83.75331,Single Family,10.0,3.0,3150.0,10062.0,1930.0,"{'fireplace': True, 'foundationType': 'Brick', 'heating': True, 'heatingType': 'Forced Air', 'roomCount': 7, 'unitCount': 1, 'floorCount': 2}","{'2019': {'year': 2019, 'value': 309400, 'land': 309400}, '2023': {'year': 2023, 'value': 377200}, '2024': {'year': 2024, 'value': 434500}}","{'2018': {'year': 2018, 'total': 12562}, '2022': {'year': 2022, 'total': 17978}, '2023': {'year': 2023, 'total': 24784}}",R4C,"{'names': ['337 THIRD STREET LLC'], 'type': 'Organization', 'mailingAddress': {'id': '414-Huntington-Pl,-Ann-Arbor,-MI-48104', 'formattedAddress': '414 Huntington Pl, Ann Arbor, MI 48104', 'addressLine1': '414 Huntington Pl', 'addressLine2': None, 'city': 'Ann Arbor', 'state': 'MI', 'stateFips': '26', 'zipCode': '48104'}}",False
"809-Mary-St,-Ann-Arbor,-MI-48104","809 Mary St, Ann Arbor, MI 48104",809 Mary St,,Ann Arbor,MI,48104,42.271006,-83.741399,Apartment,6.0,2.0,1690.0,3398.0,1920.0,"{'exteriorType': 'Ribbed Aluminum', 'fireplace': True, 'floorCount': 2, 'garage': True, 'garageSpaces': 3, 'garageType': 'Detached', 'heating': True, 'heatingType': 'Forced Air', 'roomCount': 7, 'unitCount': 1, 'cooling': True, 'coolingType': 'Commercial'}","{'2019': {'year': 2019, 'value': 212800, 'land': 212800}, '2023': {'year': 2023, 'value': 274400}, '2024': {'year': 2024, 'value': 287800}}","{'2018': {'year': 2018, 'total': 3842}, '2022': {'year': 2022, 'total': 3370}, '2023': {'year': 2023, 'total': 4645}}",C1A/R,"{'names': ['WEST ARBOR ASSOC'], 'mailingAddress': {'id': '608-Packard-St,-Ann-Arbor,-MI-48104', 'formattedAddress': '608 Packard St, Ann Arbor, MI 48104', 'addressLine1': '608 Packard St', 'addressLine2': None, 'city': 'Ann Arbor', 'state': 'MI', 'stateFips': '26', 'zipCode': '48104'}}",False
"3457-Plymouth-Rd,-Ann-Arbor,-MI-48105","3457 Plymouth Rd, Ann Arbor, MI 48105",3457 Plymouth Rd,,Ann Arbor,MI,48105,42.305087,-83.694648,Condo,2.0,2.5,1400.0,,2007.0,"{'cooling': True, 'coolingType': 'Commercial', 'floorCount': 2, 'garage': True, 'garageType': 'Garage', 'heating': True, 'heatingType': 'Forced Air'}","{'2023': {'year': 2023, 'value': 161200}}","{'2022': {'year': 2022, 'total': 4532}}",PUD,"{'names': ['GATEWAY ANN ARBOR LLC', 'GRAND SAKWA MANAGEMENT LLC'], 'mailingAddress': {'id': '28470-W-13-Mile-Rd,-STE-220,-Farmington-Hills,-MI-48334', 'addressLine1': '28470 W 13 Mile Rd', 'addressLine2': 'STE 220', 'city': 'Farmington Hills', 'state': 'MI', 'stateFips': '26', 'zipCode': '48334'}}",False
"3467-Plymouth-Rd,-Ann-Arbor,-MI-48105","3467 Plymouth Rd, Ann Arbor, MI 48105",3467 Plymouth Rd,,Ann Arbor,MI,48105,42.305087,-83.694648,Condo,2.0,2.0,1379.0,,2007.0,"{'architectureType': 'Ranch', 'cooling': True, 'coolingType': 'Commercial', 'garage': True, 'garageType': 'Garage', 'heating': True, 'heatingType': 'Forced Air'}","{'2023': {'year': 2023, 'value': 171200}}","{'2022': {'year': 2022, 'total': 4784}}",PUD,"{'names': ['GATEWAY ANN ARBOR LLC', 'GRAND SAKWA MANAGEMENT LLC'], 'mailingAddress': {'id': '28470-W-13-Mile-Rd,-STE-220,-Farmington-Hills,-MI-48334', 'addressLine1': '28470 W 13 Mile Rd', 'addressLine2': 'STE 220', 'city': 'Farmington Hills', 'state': 'MI', 'stateFips': '26', 'zipCode': '48334'}}",False
"3453-Plymouth-Rd,-Ann-Arbor,-MI-48105","3453 Plymouth Rd, Ann Arbor, MI 48105",3453 Plymouth Rd,,Ann Arbor,MI,48105,42.305073,-83.694646,Apartment,2.0,2.0,1379.0,,2008.0,"{'architectureType': 'Ranch', 'cooling': True, 'coolingType': 'Commercial', 'garage': True, 'garageType': 'Garage', 'heating': True, 'heatingType': 'Forced Air'}","{'2023': {'year': 2023, 'value': 166100}}","{'2022': {'year': 2022, 'total': 4113}}",PUD,"{'names': ['GATEWAY ANN ARBOR LLC', 'GRAND SAKWA MANAGEMENT LLC'], 'mailingAddress': {'id': '28470-W-13-Mile-Rd,-STE-220,-Farmington-Hills,-MI-48334', 'addressLine1': '28470 W 13 Mile Rd', 'addressLine2': 'STE 220', 'city': 'Farmington Hills', 'state': 'MI', 'stateFips': '26', 'zipCode': '48334'}}",False
"3354-Burbank-Dr,-Ann-Arbor,-MI-48105","3354 Burbank Dr, Ann Arbor, MI 48105",3354 Burbank Dr,,Ann Arbor,MI,48105,42.314631,-83.689977,Condo,3.0,2.0,1280.0,,1979.0,"{'architectureType': 'Condo / Apartment', 'cooling': True, 'coolingType': 'Commercial', 'fireplace': True, 'heating': True, 'heatingType': 'Forced Air', 'roomCount': 6, 'unitCount': 1}","{'2024': {'year': 2024, 'value': 136600}}","{'2023': {'year': 2023, 'total': 4978}}",R4A,"{'names': ['Wu Polon'], 'type': 'Individual', 'mailingAddress': {'id': '3354-Burbank-Dr,-Ann-Arbor,-MI-48105', 'formattedAddress': '3354 Burbank Dr, Ann Arbor, MI 48105', 'addressLine1': '3354 Burbank Dr', 'addressLine2': None, 'city': 'Ann Arbor', 'state': 'MI', 'stateFips': '26', 'zipCode': '48105'}}",True
"1022-S-Forest-Ave,-Ann-Arbor,-MI-48104","1022 S Forest Ave, Ann Arbor, MI 48104",1022 S Forest Ave,,Ann Arbor,MI,48104,42.269264,-83.733441,Single Family,2.0,1.0,,,,,,,,,
"608-Packard-St,-Ann-Arbor,-MI-48104","608 Packard St, Ann Arbor, MI 48104",608 Packard St,,Ann Arbor,MI,48104,42.271432,-83.741545,Apartment,6.0,2.0,2108.0,,,,,,,,
"921-Mary-St,-Apt-2,-Ann-Arbor,-MI-48104","921 Mary St, Apt 2, Ann Arbor, MI 48104",921 Mary St,Apt 2,Ann Arbor,MI,48104,42.270391,-83.741469,Apartment,2.0,1.0,520.0,,,,,,,,
"204-N-State-St,-Ann-Arbor,-MI-48104","204 N State St, Ann Arbor, MI 48104",204 N State St,,Ann Arbor,MI,48104,42.282442,-83.740614,Single Family,5.0,2.0,1936.0,7405.0,1901.0,"{'fireplace': True, 'floorCount': 2, 'heating': True, 'heatingType': 'Forced Air', 'roomCount': 9, 'unitCount': 1}","{'2024': {'year': 2024, 'value': 328600}}","{'2023': {'year': 2023, 'total': 18352}}",R4C,"{'names': ['204 NORTH STATE STREET LLC'], 'type': 'Organization', 'mailingAddress': {'id': '414-Huntington-Pl,-Ann-Arbor,-MI-48104', 'formattedAddress': '414 Huntington Pl, Ann Arbor, MI 48104', 'addressLine1': '414 Huntington Pl', 'addressLine2': None, 'city': 'Ann Arbor', 'state': 'MI', 'stateFips': '26', 'zipCode': '48104'}}",False
"3433-Plymouth-Rd,-Ann-Arbor,-MI-48105","3433 Plymouth Rd, Ann Arbor, MI 48105",3433 Plymouth Rd,,Ann Arbor,MI,48105,42.305416,-83.694512,Condo,2.0,2.0,1379.0,,2007.0,"{'architectureType': 'Ranch', 'cooling': True, 'coolingType': 'Commercial', 'garage': True, 'garageType': 'Garage', 'heating': True, 'heatingType': 'Forced Air'}","{'2023': {'year': 2023, 'value': 166100}}","{'2022': {'year': 2022, 'total': 4113}}",PUD,"{'names': ['GATEWAY ANN ARBOR LLC', 'GRAND SAKWA MANAGEMENT LLC'], 'mailingAddress': {'id': '28470-W-13-Mile-Rd,-STE-220,-Farmington-Hills,-MI-48334', 'addressLine1': '28470 W 13 Mile Rd', 'addressLine2': 'STE 220', 'city': 'Farmington Hills', 'state': 'MI', 'stateFips': '26', 'zipCode': '48334'}}",False
"339-3rd-St,-Ann-Arbor,-MI-48103","339 3rd St, Ann Arbor, MI 48103",339 3rd St,,Ann Arbor,MI,48103,42.278528,-83.753629,Condo,4.0,1.0,,,,,,,,,
"337-1-2-3rd-St,-Ann-Arbor,-MI-48103","337 1/2 3rd St, Ann Arbor, MI 48103",337 1/2 3rd St,,Ann Arbor,MI,48103,42.278566,-83.75331,Single Family,1.0,1.0,1000.0,,,,,,,,
"3300-Ann-Arbor-Saline-Rd,-Ann-Arbor,-MI-48103","3300 Ann Arbor Saline Rd, Ann Arbor, MI 48103",3300 Ann Arbor Saline Rd,,Ann Arbor,MI,48103,42.23925,-83.77168,Apartment,1.0,1.0,873.0,,2020.0,,,,,,
"909-E-Huron-St,-Ann-Arbor,-MI-48104","909 E Huron St, Ann Arbor, MI 48104",909 E Huron St,,Ann Arbor,MI,48104,42.281354,-83.737893,Single Family,4.0,4.0,2254.0,5358.0,1901.0,"{'fireplace': True, 'floorCount': 2, 'heating': True, 'heatingType': 'Forced Air', 'roomCount': 12, 'unitCount': 1}","{'2022': {'year': 2022, 'value': 271900}, '2023': {'year': 2023, 'value': 286600}, '2024': {'year': 2024, 'value': 355500}}","{'2022': {'year': 2022, 'total': 6880}, '2023': {'year': 2023, 'total': 9484}}",R4C,"{'names': ['WESSINGER PROPERTIES, LLC'], 'type': 'Organization', 'mailingAddress': {'id': '2061-S-7th-St,-Ann-Arbor,-MI-48103', 'formattedAddress': '2061 S 7th St, Ann Arbor, MI 48103', 'addressLine1': '2061 S 7th St', 'addressLine2': None, 'city': 'Ann Arbor', 'state': 'MI', 'stateFips': '26', 'zipCode': '48103'}}",False
"816-Tappan-Ave,-Ann-Arbor,-MI-48104","816 Tappan Ave, Ann Arbor, MI 48104",816 Tappan Ave,,Ann Arbor,MI,48104,42.271304,-83.737719,Apartment,1.0,1.0,,,,,,,,,
"530-Hill-St,-Ann-Arbor,-MI-48104","530 Hill St, Ann Arbor, MI 48104",530 Hill St,,Ann Arbor,MI,48104,42.271663,-83.742641,Apartment,1.0,1.0,,,,,,,,,
"1407-Morton-Ave,-Ann-Arbor,-MI-48104","1407 Morton Ave, Ann Arbor, MI 48104",1407 Morton Ave,,Ann Arbor,MI,48104,42.262638,-83.731089,Townhouse,6.0,2.5,1800.0,,,,,,,,
"908-Oakland-Ave,-Apt-301,-Ann-Arbor,-MI-48104","908 Oakland Ave, Apt 301, Ann Arbor, MI 48104",908 Oakland Ave,Apt 301,Ann Arbor,MI,48104,42.270967,-83.738828,Apartment,1.0,1.0,,,,,,,,,
"508-Elm-St,-Ann-Arbor,-MI-48104","508 Elm St, Ann Arbor, MI 48104",508 Elm St,,Ann Arbor,MI,48104,42.276751,-83.730466,Single Family,5.0,2.0,1805.0,3441.0,1920.0,"{'fireplace': True, 'floorCount': 2, 'foundationType': 'Concrete', 'heating': True, 'heatingType': 'Forced Air', 'roomCount': 8, 'unitCount': 1}","{'2022': {'year': 2022, 'value': 305900}, '2023': {'year': 2023, 'value': 327600}, '2024': {'year': 2024, 'value': 346300}}","{'2022': {'year': 2022, 'total': 13099}, '2023': {'year': 2023, 'total': 18057}}",R4C,"{'names': ['508 ELM STREET LLC'], 'type': 'Organization', 'mailingAddress': {'id': '414-Huntington-Pl,-Ann-Arbor,-MI-48104', 'formattedAddress': '414 Huntington Pl, Ann Arbor, MI 48104', 'addressLine1': '414 Huntington Pl', 'addressLine2': None, 'city': 'Ann Arbor', 'state': 'MI', 'stateFips': '26', 'zipCode': '48104'}}",False
"2918-Signature-Blvd,-Ann-Arbor,-MI-48103","2918 Signature Blvd, Ann Arbor, MI 48103",2918 Signature Blvd,,Ann Arbor,MI,48103,42.243227,-83.753834,Condo,2.0,2.0,1400.0,130680.0,2002.0,"{'architectureType': 'Condo / Apartment', 'cooling': True, 'coolingType': 'Commercial', 'garage': True, 'garageType': 'Garage', 'heating': True, 'heatingType': 'Forced Air'}","{'2024': {'year': 2024, 'value': 155100}}","{'2023': {'year': 2023, 'total': 8383}}",R4B,"{'names': ['SB REAL ESTATE 2 LLC'], 'type': 'Organization', 'mailingAddress': {'id': '4619-Whispering-Oaks-Ct,-Sylvania,-OH-43560', 'formattedAddress': '4619 Whispering Oaks Ct, Sylvania, OH 43560', 'addressLine1': '4619 Whispering Oaks Ct', 'addressLine2': None, 'city': 'Sylvania', 'state': 'OH', 'stateFips': '39', 'zipCode': '43560'}}",False
"419-Montgomery-Ave,-Ann-Arbor,-MI-48103","419 Montgomery Ave, Ann Arbor, MI 48103",419 Montgomery Ave,,Ann Arbor,MI,48103,42.278087,-83.764359,Multi-Family,2.0,1.0,720.0,9148.0,1963.0,,,,,,
"1114-Fountain-St,-Ann-Arbor,-MI-48103","1114 Fountain St, Ann Arbor, MI 48103",1114 Fountain St,,Ann Arbor,MI,48103,42.293317,-83.754233,Single Family,2.0,1.0,805.0,,,,,,,,
"114-E-Davis-Ave,-Ann-Arbor,-MI-48104","114 E Davis Ave, Ann Arbor, MI 48104",114 E Davis Ave,,Ann Arbor,MI,48104,42.270111,-83.750325,Single Family,4.0,1.0,1070.0,2309.0,1915.0,"{'cooling': True, 'coolingType': 'Commercial', 'fireplace': True, 'floorCount': 2, 'heating': True, 'heatingType': 'Forced Air', 'roomCount': 6, 'unitCount': 1}","{'2022': {'year': 2022, 'value': 157100}, '2023': {'year': 2023, 'value': 177800}, '2024': {'year': 2024, 'value': 179900}}","{'2022': {'year': 2022, 'total': 3921}, '2023': {'year': 2023, 'total': 8687}}",R4C,"{'names': ['John H Bates', 'Susan E Bates'], 'type': 'Individual', 'mailingAddress': {'id': '1775-High-Pointe-Ln,-Ann-Arbor,-MI-48108', 'formattedAddress': '1775 High Pointe Ln, Ann Arbor, MI 48108', 'addressLine1': '1775 High Pointe Ln', 'addressLine2': None, 'city': 'Ann Arbor', 'state': 'MI', 'stateFips': '26', 'zipCode': '48108'}}",False
"321-Cloverdale-St,-Ann-Arbor,-MI-48105","321 Cloverdale St, Ann Arbor, MI 48105",321 Cloverdale St,,Ann Arbor,MI,48105,42.3063,-83.74031,Multi-Family,3.0,1.0,988.0,7405.0,1967.0,,,,,,
"603-E-Hoover-Ave,-Ann-Arbor,-MI-48104","603 E Hoover Ave, Ann Arbor, MI 48104",603 E Hoover Ave,,Ann Arbor,MI,48104,42.269867,-83.741493,Single Family,4.0,2.0,1400.0,2047.0,1918.0,"{'fireplace': True, 'foundationType': 'Brick', 'heating': True, 'heatingType': 'Forced Air', 'roomCount': 7, 'unitCount': 1, 'cooling': True, 'coolingType': 'Commercial', 'floorCount': 2}","{'2019': {'year': 2019, 'value': 164000, 'land': 164000}, '2024': {'year': 2024, 'value': 218500}}","{'2018': {'year': 2018, 'total': 7209}, '2023': {'year': 2023, 'total': 8828}}",R4C,"{'names': ['Peter Theocharakis', 'Andrea Theocharakis', 'Andriana Theocharakis'], 'type': 'Individual', 'mailingAddress': {'id': '1285-Woodland-Ct,-Saline,-MI-48176', 'formattedAddress': '1285 Woodland Ct, Saline, MI 48176', 'addressLine1': '1285 Woodland Ct', 'addressLine2': None, 'city': 'Saline', 'state': 'MI', 'stateFips': '26', 'zipCode': '48176'}}",False
"2505-Miller-Ave,-Ann-Arbor,-MI-48103","2505 Miller Ave, Ann Arbor, MI 48103",2505 Miller Ave,,Ann Arbor,MI,48103,42.294853,-83.781558,Condo,2.0,1.0,,,,,,,,,
"616-Lawrence-St,---1,-Ann-Arbor,-MI-48104","616 Lawrence St, # 1, Ann Arbor, MI 48104",616 Lawrence St,# 1,Ann Arbor,MI,48104,42.283657,-83.741264,Multi-Family,5.0,2.0,,,,,,,,,
"419-N-Ingalls-St,-Ann-Arbor,-MI-48104","419 N Ingalls St, Ann Arbor, MI 48104",419 N Ingalls St,,Ann Arbor,MI,48104,42.284584,-83.738834,Single Family,4.0,1.5,1427.0,2396.0,1901.0,"{'fireplace': True, 'floorCount': 2, 'heating': True, 'heatingType': 'Forced Air', 'roomCount': 8, 'unitCount': 1}","{'2023': {'year': 2023, 'value': 251000}, '2024': {'year': 2024, 'value': 314300}}","{'2022': {'year': 2022, 'total': 12194}, '2023': {'year': 2023, 'total': 16810}}",R4C,"{'names': ['419 N INGALLS LLC'], 'type': 'Organization', 'mailingAddress': {'id': '414-Huntington-Pl,-Ann-Arbor,-MI-48104', 'formattedAddress': '414 Huntington Pl, Ann Arbor, MI 48104', 'addressLine1': '414 Huntington Pl', 'addressLine2': None, 'city': 'Ann Arbor', 'state': 'MI', 'stateFips': '26', 'zipCode': '48104'}}",False
"208-N-Division-St,-Apt-1,-Ann-Arbor,-MI-48104","208 N Division St, Apt 1, Ann Arbor, MI 48104",208 N Division St,Apt 1,Ann Arbor,MI,48104,42.28256,-83.743779,Condo,1.0,1.0,,,,,,,,,
"1303-Wilmot-St,-Ann-Arbor,-MI-48104","1303 Wilmot St, Ann Arbor, MI 48104",1303 Wilmot St,,Ann Arbor,MI,48104,42.276602,-83.732929,Apartment,2.0,1.0,,,1895.0,,,,,,
"1815-Hiawatha-Pl,-Ann-Arbor,-MI-48105","1815 Hiawatha Pl, Ann Arbor, MI 48105",1815 Hiawatha Pl,,Ann Arbor,MI,48105,42.299785,-83.735173,Single Family,2.0,1.0,929.0,6534.0,1948.0,"{'architectureType': 'Ranch', 'fireplace': True, 'foundationType': 'Concrete', 'garage': True, 'garageType': 'Garage', 'heating': True, 'heatingType': 'Forced Air', 'roomCount': 5, 'unitCount': 1}","{'2022': {'year': 2022, 'value': 102600}, '2024': {'year': 2024, 'value': 119700}}","{'2022': {'year': 2022, 'total': 5228}, '2023': {'year': 2023, 'total': 7207}}",R1C,"{'names': ['ELLIPSE MANAGEMENT LLC'], 'type': 'Organization', 'mailingAddress': {'id': '301-N-Main-St,-Ann-Arbor,-MI-48104', 'formattedAddress': '301 N Main St, Ann Arbor, MI 48104', 'addressLine1': '301 N Main St', 'addressLine2': None, 'city': 'Ann Arbor', 'state': 'MI', 'stateFips': '26', 'zipCode': '48104'}}",False
"1619-S-University-Ave,-Ann-Arbor,-MI-48104","1619 S University Ave, Ann Arbor, MI 48104",1619 S University Ave,,Ann Arbor,MI,48104,42.275226,-83.727291,Single Family,10.0,3.0,2887.0,9017.0,1908.0,"{'fireplace': True, 'floorCount': 2, 'heating': True, 'heatingType': 'Forced Air', 'roomCount': 13, 'unitCount': 1}","{'2022': {'year': 2022, 'value': 329600}, '2023': {'year': 2023, 'value': 350900}, '2024': {'year': 2024, 'value': 369000}}","{'2022': {'year': 2022, 'total': 13541}, '2023': {'year': 2023, 'total': 18666}}",R2B,"{'names': ['HOLDINGS ADMINISTRATIVE'], 'mailingAddress': {'id': '777-E-Eisenhower-Pkwy,-STE-850,-Ann-Arbor,-MI-48108', 'formattedAddress': '777 E Eisenhower Pkwy, STE 850, Ann Arbor, MI 48108', 'addressLine1': '777 E Eisenhower Pkwy', 'addressLine2': 'STE 850', 'city': 'Ann Arbor', 'state': 'MI', 'stateFips': '26', 'zipCode': '48108'}}",False
"1003-S-7th-St,-Ann-Arbor,-MI-48103","1003 S 7th St, Ann Arbor, MI 48103",1003 S 7th St,,Ann Arbor,MI,48103,42.269077,-83.757927,Multi-Family,6.0,2.0,2700.0,6534.0,1959.0,,,,,,
"3447-Cummings-Dr,-Ann-Arbor,-MI-48105","3447 Cummings Dr, Ann Arbor, MI 48105",3447 Cummings Dr,,Ann Arbor,MI,48105,42.315943,-83.654449,Single Family,4.0,3.0,2706.0,41382.0,1951.0,{'unitCount': 1},,,,,
"2758-Hawks-Rd,-Ann-Arbor,-MI-48108","2758 Hawks Rd, Ann Arbor, MI 48108",2758 Hawks Rd,,Ann Arbor,MI,48108,42.247257,-83.670493,Single Family,4.0,2.5,1944.0,9583.0,1966.0,"{'cooling': True, 'exteriorType': 'Aluminum / Vinyl Siding', 'fireplace': True, 'floorCount': 2, 'foundationType': 'Slab / Mat / Raft', 'garage': True, 'garageSpaces': 2, 'garageType': 'Garage', 'heating': True, 'heatingType': 'Forced Air', 'unitCount': 1, 'coolingType': 'Commercial'}","{'2021': {'year': 2021, 'value': 118000}, '2024': {'year': 2024, 'value': 161741}}","{'2020': {'year': 2020, 'total': 5322}, '2023': {'year': 2023, 'total': 5857}}",,"{'names': ['Jimmy Pauris', 'Jean-claude Pauris'], 'type': 'Individual', 'mailingAddress': {'id': '1112-Arboretum-Way,-Canton,-MA-02021', 'formattedAddress': '1112 Arboretum Way, Canton, MA 02021', 'addressLine1': '1112 Arboretum Way', 'addressLine2': None, 'city': 'Canton', 'state': 'MA', 'stateFips': '25', 'zipCode': '02021'}}",True
"3029-Charing-Cross-Rd,-Ann-Arbor,-MI-48108","3029 Charing Cross Rd, Ann Arbor, MI 48108",3029 Charing Cross Rd,,Ann Arbor,MI,48108,42.244756,-83.689484,Apartment,3.0,2.5,,,2004.0,,,,,,
